{"version": 0.6, "generator": "Overpass API 0.7.62.8 e802775f", "osm3s": {"timestamp_osm_base": "2026-01-12T22:45:14Z", "copyright": "The data included in this document is from www.openstreetmap.org. The data is made available under ODbL."}, "elements": [{"type": "node", "id": 172447136, "lat": 35.247523, "lon": -80.82979, "tags": {"bus": "yes", "highway": "bus_stop", "public_transport": "platform"}}, {"type": "node", "id": 773016046, "lat": 35.3046219, "lon": -80.79789, "tags": {"highway": "bus_stop", "public_transport": "platform"}}, {"type": "node", "id": 773016085, "lat": 35.3047926, "lon": -80.797941, "tags": {"highway": "bus_stop", "public_transport": "platform"}}, {"type": "node", "id": 784487346, "lat": 35.323856, "lon": -80.7730501, "tags": {"bus": "yes", "highway": "bus_stop", "name": "CATS Park & Ride", "network": "CATS", "network:wikidata": "Q5085831", "operator": "Charlotte Area Transit System", "public_transport": "platform"}}, {"type": "node", "id": 2108092841, "lat": 35.1463587, "lon": -80.9360359, "tags": {"bus": "yes", "highway": "bus_stop", "name": "Whitehall Commons", "network": "CATS", "operator": "Charlotte Area Transit System", "public_transport": "platform"}}, {"type": "node", "id": 3010731033, "lat": 35.1171615, "lon": -80.7240976, "tags": {"bench": "yes", "bus": "yes", "highway": "bus_stop", "name": "John St & Ames Rd", "network": "CATS", "network:wikidata": "Q5085831", "note": "bus routes 27, 51, and 65x", "operator": "Charlotte Area Transit System", "public_transport": "platform", "shelter": "yes"}}, {"type": "node", "id": 3017178552, "lat": 35.1173669, "lon": -80.7212737, "tags": {"bench": "yes", "bus": "yes", "highway": "bus_stop", "network": "CATS", "network:wikidata": "Q5085831", "operator": "Charlotte Area Transit System", "public_transport": "platform", "shelter": "yes"}}, {"type": "node", "id": 3062273959, "lat": 35.2283632, "lon": -80.9395651, "tags": {"bus": "yes", "highway": "bus_stop", "public_transport": "platform"}}, {"type": "node", "id": 3062273960, "lat": 35.2280313, "lon": -80.9387698, "tags": {"bus": "yes", "highway": "bus_stop", "public_transport": "platform"}}, {"type": "node", "id": 3062273961, "lat": 35.2274052, "lon": -80.9337011, "tags": {"bus": "yes", "highway": "bus_stop", "name": "1", "public_transport": "platform"}}, {"type": "node", "id": 3062273962, "lat": 35.2272239, "lon": -80.9323468, "tags": {"bus": "yes", "highway": "bus_stop", "name": "2", "public_transport": "platform"}}, {"type": "node", "id": 3062273963, "lat": 35.2277064, "lon": -80.9325917, "tags": {"bus": "yes", "highway": "bus_stop", "name": "3", "public_transport": "platform"}}, {"type": "node", "id": 3062273964, "lat": 35.2278642, "lon": -80.9337789, "tags": {"bus": "yes", "highway": "bus_stop", "name": "4", "public_transport": "platform"}}, {"type": "node", "id": 3062273965, "lat": 35.2293894, "lon": -80.9386747, "tags": {"bus": "yes", "highway": "bus_stop", "public_transport": "platform"}}, {"type": "node", "id": 3062273966, "lat": 35.2292529, "lon": -80.9376575, "tags": {"bus": "yes", "highway": "bus_stop", "public_transport": "platform"}}, {"type": "node", "id": 3062273967, "lat": 35.2291093, "lon": -80.9366201, "tags": {"bus": "yes", "highway": "bus_stop", "public_transport": "platform"}}, {"type": "node", "id": 3062273968, "lat": 35.2289705, "lon": -80.9355914, "tags": {"bus": "yes", "highway": "bus_stop", "public_transport": "platform"}}, {"type": "node", "id": 3097572372, "lat": 35.2057674, "lon": -80.9411758, "tags": {"bus": "yes", "highway": "bus_stop", "name": "American Airlines Training Center Shuttle", "operator": "US Airways", "public_transport": "platform", "shelter": "yes"}}, {"type": "node", "id": 3324449805, "lat": 35.2047589, "lon": -80.9279754, "tags": {"bus": "yes", "direction": "outbound", "highway": "bus_stop", "name": "Airport Dr & Stonewall Jackson Home Dr", "network": "CATS", "network:wikidata": "Q5085831", "operator": "Charlotte Area Transit System", "public_transport": "platform", "routes": "235"}}, {"type": "node", "id": 3324451627, "lat": 35.2082887, "lon": -80.928259, "tags": {"bus": "yes", "direction": "inbound", "highway": "bus_stop", "name": "Ashley Cir & Airport Dr", "network": "CATS", "network:wikidata": "Q5085831", "operator": "Charlotte Area Transit System", "public_transport": "platform", "routes": "235"}}, {"type": "node", "id": 3324451628, "lat": 35.2100421, "lon": -80.9281239, "tags": {"bus": "yes", "direction": "inbound", "highway": "bus_stop", "name": "Ashley Cir & Airport Dr", "network": "CATS", "network:wikidata": "Q5085831", "operator": "Charlotte Area Transit System", "public_transport": "platform", "routes": "235"}}, {"type": "node", "id": 3324452855, "lat": 35.1979426, "lon": -80.9165497, "tags": {"bus": "yes", "direction": "not applicable", "highway": "bus_stop", "name": "Cascade Pointe Blvd & Tyvola Rd", "network": "CATS", "network:wikidata": "Q5085831", "operator": "Charlotte Area Transit System", "public_transport": "stop_position", "routes": "60"}}, {"type": "node", "id": 3324453829, "lat": 35.1433616, "lon": -80.7219243, "tags": {"bus": "yes", "direction": "not applicable", "highway": "bus_stop", "name": "Crownpoint Executive Dr & Independence Blvd", "network": "CATS", "network:wikidata": "Q5085831", "operator": "Charlotte Area Transit System", "public_transport": "platform", "routes": "17"}}, {"type": "node", "id": 3324453831, "lat": 35.1424803, "lon": -80.7268248, "tags": {"bus": "yes", "highway": "bus_stop", "name": "Crownpoint Executive Dr @ 2201", "network": "CATS", "network:wikidata": "Q5085831", "operator": "Charlotte Area Transit System", "public_transport": "platform", "route_ref": "17"}}, {"type": "node", "id": 3324453983, "lat": 35.2262421, "lon": -80.8332283, "tags": {"bus": "yes", "direction": "outbound", "highway": "bus_stop", "name": "Davidson St & 9th St", "network": "CATS", "network:wikidata": "Q5085831", "operator": "Charlotte Area Transit System", "public_transport": "platform", "route_ref": "3,23", "wheelchair": "yes"}}, {"type": "node", "id": 3324455286, "lat": 35.202299, "lon": -80.9159105, "tags": {"bus": "yes", "direction": "outbound", "highway": "bus_stop", "name": "Perimeter Pointe Pkwy & Glen Lake Dr", "network": "CATS", "network:wikidata": "Q5085831", "operator": "Charlotte Area Transit System", "public_transport": "platform", "routes": "60"}}, {"type": "node", "id": 3324455769, "lat": 35.1450643, "lon": -80.7276408, "tags": {"bus": "yes", "highway": "bus_stop", "name": "Sardis Rd North & Crownpoint Executive Dr", "network": "CATS", "network:wikidata": "Q5085831", "operator": "Charlotte Area Transit System", "public_transport": "platform", "route_ref": "17"}}, {"type": "node", "id": 4001611003, "lat": 35.2273103, "lon": -80.8432978, "tags": {"bench": "yes", "bus": "yes", "covered": "yes", "highway": "bus_stop", "public_transport": "platform", "shelter": "yes"}}, {"type": "node", "id": 4219287790, "lat": 35.349304, "lon": -80.857193, "tags": {"bus": "yes", "highway": "bus_stop", "public_transport": "platform"}}, {"type": "node", "id": 4219334989, "lat": 35.3498297, "lon": -80.8540824, "tags": {"bus": "yes", "highway": "bus_stop", "public_transport": "platform", "shelter": "yes"}}, {"type": "node", "id": 4591985922, "lat": 35.2167423, "lon": -80.7892267, "tags": {"bench": "no", "bus": "yes", "highway": "bus_stop", "name": "Central Ave & Briar Creek Rd", "network": "CATS", "network:wikidata": "Q5085831", "operator": "Charlotte Area Transit System", "public_transport": "platform", "shelter": "no"}}, {"type": "node", "id": 4591985923, "lat": 35.2163183, "lon": -80.7880988, "tags": {"bench": "no", "bus": "yes", "highway": "bus_stop", "name": "Central Ave & Briar Creek Rd", "network": "CATS", "network:wikidata": "Q5085831", "operator": "Charlotte Area Transit System", "public_transport": "platform", "shelter": "no"}}, {"type": "node", "id": 4676919726, "lat": 35.2135788, "lon": -80.83542, "tags": {"bench": "yes", "bus": "yes", "highway": "bus_stop", "public_transport": "platform", "shelter": "yes"}}, {"type": "node", "id": 4676919727, "lat": 35.2138315, "lon": -80.8354216, "tags": {"amenity": "waste_basket", "bench": "yes", "highway": "bus_stop", "public_transport": "platform", "shelter": "yes"}}, {"type": "node", "id": 5073808812, "lat": 35.19821, "lon": -80.9130846, "tags": {"bench": "no", "bus": "yes", "highway": "bus_stop", "name": "VA Hospital Outbound", "network": "CATS", "network:wikidata": "Q5085831", "operator": "Charlotte Area Transit System", "public_transport": "platform", "shelter": "yes"}}, {"type": "node", "id": 5285073021, "lat": 35.1306489, "lon": -80.8754835, "tags": {"bench": "no", "highway": "bus_stop", "public_transport": "platform", "shelter": "no"}}, {"type": "node", "id": 5288066770, "lat": 35.3118866, "lon": -80.9694344, "tags": {"bench": "yes", "bus": "yes", "highway": "bus_stop", "name": "Mt Holly CATS Bus Stop", "network": "CATS", "public_transport": "platform", "shelter": "no"}}, {"type": "node", "id": 5288066771, "lat": 35.3113718, "lon": -80.9702338, "tags": {"bench": "yes", "bus": "yes", "highway": "bus_stop", "name": "Mt Holly CATS Bus Stop", "network": "local bus route", "operator": "CATS", "public_transport": "platform"}}, {"type": "node", "id": 5301583214, "lat": 35.1378845, "lon": -80.9365822, "tags": {"bench": "no", "bus": "yes", "highway": "bus_stop", "name": "Tryon & Bethany Brook", "network": "CATS", "network:wikidata": "Q5085831", "operator": "Charlotte Area Transit System", "public_transport": "platform", "shelter": "no"}}, {"type": "node", "id": 5301583215, "lat": 35.1365493, "lon": -80.9375773, "tags": {"bench": "yes", "bus": "yes", "highway": "bus_stop", "name": "Village at Whitehall", "network": "CATS", "network:wikidata": "Q5085831", "operator": "Charlotte Area Transit System", "public_transport": "platform", "shelter": "no"}}, {"type": "node", "id": 5301583216, "lat": 35.134209, "lon": -80.9393332, "tags": {"bench": "yes", "bus": "yes", "highway": "bus_stop", "name": "Tryon & Sandy Porter", "network": "CATS", "network:wikidata": "Q5085831", "operator": "Charlotte Area Transit System", "public_transport": "platform", "shelter": "yes"}}, {"type": "node", "id": 5301583217, "lat": 35.1341134, "lon": -80.9397275, "tags": {"bench": "no", "bus": "yes", "highway": "bus_stop", "name": "Tryon & Sandy Porter", "network": "CATS", "network:wikidata": "Q5085831", "operator": "Charlotte Area Transit System", "public_transport": "platform", "shelter": "no"}}, {"type": "node", "id": 5301583218, "lat": 35.1321278, "lon": -80.9408415, "tags": {"bench": "no", "bus": "yes", "highway": "bus_stop", "name": "Tryon & Township", "network": "CATS", "network:wikidata": "Q5085831", "operator": "Charlotte Area Transit System", "public_transport": "platform", "shelter": "no"}}, {"type": "node", "id": 5301583219, "lat": 35.1309478, "lon": -80.9409954, "tags": {"bench": "no", "bus": "yes", "highway": "bus_stop", "name": "Tryon & Westinghouse", "network": "CATS", "network:wikidata": "Q5085831", "operator": "Charlotte Area Transit System", "public_transport": "platform", "shelter": "no"}}, {"type": "node", "id": 5301583220, "lat": 35.1287291, "lon": -80.9422976, "tags": {"bench": "no", "bus": "yes", "highway": "bus_stop", "name": "Tryon & Westinghouse", "network": "CATS", "network:wikidata": "Q5085831", "operator": "Charlotte Area Transit System", "public_transport": "platform", "shelter": "no"}}, {"type": "node", "id": 5301584221, "lat": 35.127659, "lon": -80.9423731, "tags": {"bench": "no", "bus": "yes", "highway": "bus_stop", "name": "Tryon & John Price", "network": "CATS", "network:wikidata": "Q5085831", "operator": "Charlotte Area Transit System", "public_transport": "platform", "shelter": "no"}}, {"type": "node", "id": 5301584222, "lat": 35.1238473, "lon": -80.9447704, "tags": {"bench": "no", "bus": "yes", "highway": "bus_stop", "name": "Tryon & Nevada", "network": "CATS", "network:wikidata": "Q5085831", "operator": "Charlotte Area Transit System", "public_transport": "platform", "shelter": "no"}}, {"type": "node", "id": 5301584223, "lat": 35.1237897, "lon": -80.9453172, "tags": {"bench": "no", "bus": "yes", "highway": "bus_stop", "name": "Tryon & Nevada", "network": "CATS", "network:wikidata": "Q5085831", "operator": "Charlotte Area Transit System", "public_transport": "platform", "shelter": "no"}}, {"type": "node", "id": 5301584224, "lat": 35.1215636, "lon": -80.9485353, "tags": {"bench": "yes", "bus": "yes", "highway": "bus_stop", "name": "Tryon & General", "network": "CATS", "network:wikidata": "Q5085831", "operator": "Charlotte Area Transit System", "public_transport": "platform", "shelter": "no"}}, {"type": "node", "id": 5301584225, "lat": 35.1215929, "lon": -80.9491723, "tags": {"bench": "no", "bus": "yes", "highway": "bus_stop", "name": "Tryon & General", "network": "CATS", "network:wikidata": "Q5085831", "operator": "Charlotte Area Transit System", "public_transport": "platform", "shelter": "no"}}, {"type": "node", "id": 5301584226, "lat": 35.1189448, "lon": -80.9546241, "tags": {"bus": "yes", "highway": "bus_stop", "name": "South Point Village", "network": "CATS", "network:wikidata": "Q5085831", "operator": "Charlotte Area Transit System", "public_transport": "platform", "shelter": "no"}}, {"type": "node", "id": 5301584227, "lat": 35.1178405, "lon": -80.9561555, "tags": {"bench": "no", "bus": "yes", "highway": "bus_stop", "name": "Tryon & Carowinds", "network": "CATS", "network:wikidata": "Q5085831", "operator": "Charlotte Area Transit System", "public_transport": "platform", "shelter": "no"}}, {"type": "node", "id": 5301584228, "lat": 35.1171299, "lon": -80.9583842, "tags": {"bench": "no", "bus": "yes", "highway": "bus_stop", "name": "Tryon & John Price", "network": "CATS", "network:wikidata": "Q5085831", "operator": "Charlotte Area Transit System", "public_transport": "platform", "shelter": "no"}}, {"type": "node", "id": 5301584229, "lat": 35.1159487, "lon": -80.9600615, "tags": {"bench": "no", "bus": "yes", "highway": "bus_stop", "name": "Tryon & South Point", "network": "CATS", "network:wikidata": "Q5085831", "operator": "Charlotte Area Transit System", "public_transport": "platform", "shelter": "no"}}, {"type": "node", "id": 5301584230, "lat": 35.1146082, "lon": -80.9633405, "tags": {"bench": "no", "bus": "yes", "highway": "bus_stop", "name": "Tryon & Moss", "network": "CATS", "network:wikidata": "Q5085831", "operator": "Charlotte Area Transit System", "public_transport": "platform", "shelter": "no"}}, {"type": "node", "id": 5301584231, "lat": 35.11515, "lon": -80.9626955, "tags": {"bench": "no", "bus": "yes", "highway": "bus_stop", "name": "Tryon & Moss", "network": "CATS", "network:wikidata": "Q5085831", "operator": "Charlotte Area Transit System", "public_transport": "platform", "shelter": "no"}}, {"type": "node", "id": 5301584232, "lat": 35.114163, "lon": -80.9657548, "tags": {"bench": "yes", "bus": "yes", "highway": "bus_stop", "name": "Tryon & Guardian Angel", "network": "CATS", "network:wikidata": "Q5085831", "operator": "Charlotte Area Transit System", "public_transport": "platform", "shelter": "yes"}}, {"type": "node", "id": 5301584233, "lat": 35.1135436, "lon": -80.9679741, "tags": {"bench": "no", "bus": "yes", "highway": "bus_stop", "name": "Tryon & Garden Oaks", "network": "CATS", "network:wikidata": "Q5085831", "operator": "Charlotte Area Transit System", "public_transport": "platform", "shelter": "no"}}, {"type": "node", "id": 5301584234, "lat": 35.1134903, "lon": -80.9668934, "tags": {"bench": "no", "bus": "yes", "highway": "bus_stop", "name": "Tryon & Savannah Club", "network": "CATS", "network:wikidata": "Q5085831", "operator": "Charlotte Area Transit System", "public_transport": "platform", "shelter": "no"}}, {"type": "node", "id": 5301584235, "lat": 35.1117986, "lon": -80.9724559, "tags": {"bench": "no", "bus": "yes", "highway": "bus_stop", "name": "Tryon & Erwin", "network": "CATS", "network:wikidata": "Q5085831", "operator": "Charlotte Area Transit System", "public_transport": "platform", "shelter": "no"}}, {"type": "node", "id": 5301584236, "lat": 35.1114078, "lon": -80.9724939, "tags": {"bench": "no", "bus": "yes", "highway": "bus_stop", "name": "Tryon & Erwin", "network": "CATS", "network:wikidata": "Q5085831", "operator": "Charlotte Area Transit System", "public_transport": "platform", "shelter": "no"}}, {"type": "node", "id": 5301584237, "lat": 35.108154, "lon": -80.97795, "tags": {"bench": "yes", "bus": "yes", "highway": "bus_stop", "name": "Tryon & Choate", "network": "CATS", "network:wikidata": "Q5085831", "operator": "Charlotte Area Transit System", "public_transport": "platform", "shelter": "no"}}, {"type": "node", "id": 5301584238, "lat": 35.1083752, "lon": -80.9782366, "tags": {"bench": "no", "bus": "yes", "highway": "bus_stop", "name": "Tryon & Choate", "network": "CATS", "network:wikidata": "Q5085831", "operator": "Charlotte Area Transit System", "public_transport": "platform", "shelter": "no"}}, {"type": "node", "id": 5301584240, "lat": 35.104842, "lon": -80.9840096, "tags": {"bench": "yes", "bus": "yes", "highway": "bus_stop", "name": "Tryon & Rivergate", "network": "CATS", "network:wikidata": "Q5085831", "operator": "Charlotte Area Transit System", "public_transport": "platform", "shelter": "yes"}}, {"type": "node", "id": 5301584241, "lat": 35.1035745, "lon": -80.9865211, "tags": {"bench": "no", "bus": "yes", "highway": "bus_stop", "name": "Tryon & Steele Creek", "network": "CATS", "network:wikidata": "Q5085831", "operator": "Charlotte Area Transit System", "public_transport": "platform", "shelter": "no"}}, {"type": "node", "id": 5301584242, "lat": 35.1017177, "lon": -80.98851, "tags": {"bench": "no", "bus": "yes", "highway": "bus_stop", "name": "Steele Creek & Tryon", "network": "CATS", "network:wikidata": "Q5085831", "operator": "Charlotte Area Transit System", "public_transport": "platform", "shelter": "no"}}, {"type": "node", "id": 5301584243, "lat": 35.0989728, "lon": -80.9868077, "tags": {"bench": "no", "bus": "yes", "highway": "bus_stop", "name": "Rivergate", "network": "CATS", "network:wikidata": "Q5085831", "operator": "Charlotte Area Transit System", "public_transport": "platform", "shelter": "no"}}, {"type": "node", "id": 5301584244, "lat": 35.0988612, "lon": -80.9868275, "tags": {"bench": "no", "bus": "yes", "highway": "bus_stop", "name": "Rivergate", "network": "CATS", "network:wikidata": "Q5085831", "operator": "Charlotte Area Transit System", "public_transport": "platform", "shelter": "no"}}, {"type": "node", "id": 5301584245, "lat": 35.1041354, "lon": -80.9861835, "tags": {"bench": "no", "bus": "yes", "highway": "bus_stop", "name": "Tryon & Rivergate", "network": "CATS", "network:wikidata": "Q5085831", "operator": "Charlotte Area Transit System", "public_transport": "platform", "shelter": "no"}}, {"type": "node", "id": 5301584246, "lat": 35.106232, "lon": -80.9554404, "tags": {"bench": "no", "bin": "no", "bus": "yes", "highway": "bus_stop", "name": "South Point Boulevard at Carowinds Boulevard", "network": "CATS", "network:wikidata": "Q5085831", "operator": "Charlotte Area Transit System", "public_transport": "platform", "ref": "46176", "route_ref": "42", "shelter": "no"}}, {"type": "node", "id": 5301584247, "lat": 35.1060087, "lon": -80.9561933, "tags": {"bench": "no", "bin": "no", "bus": "yes", "highway": "bus_stop", "name": "South Point Boulevard at Carowinds Boulevard", "network": "CATS", "network:wikidata": "Q5085831", "operator": "Charlotte Area Transit System", "public_transport": "platform", "ref": "46182", "route_ref": "42", "shelter": "no"}}, {"type": "node", "id": 5301584248, "lat": 35.1080828, "lon": -80.9576591, "tags": {"bench": "no", "bin": "no", "bus": "yes", "highway": "bus_stop", "name": "South Point Boulevard at South Lakes Drive", "network": "CATS", "network:wikidata": "Q5085831", "operator": "Charlotte Area Transit System", "public_transport": "platform", "ref": "46181", "route_ref": "42", "shelter": "no"}}, {"type": "node", "id": 5301584249, "lat": 35.11152, "lon": -80.9577772, "tags": {"bench": "no", "bin": "no", "highway": "bus_stop", "name": "South Point Boulevard at 13500", "network": "CATS", "operator": "Charlotte Area Tansit System", "public_transport": "platform", "ref": "46180", "route_ref": "42", "shelter": "no"}}, {"type": "node", "id": 5301584250, "lat": 35.1022154, "lon": -80.951956, "tags": {"bench": "no", "bin": "no", "bus": "yes", "highway": "bus_stop", "name": "Carowinds Boulevard at TJ Maxx", "network": "CATS", "network:wikidata": "Q5085831", "operator": "Charlotte Area Transit System", "public_transport": "platform", "ref": "46183", "route_ref": "42", "shelter": "no"}}, {"type": "node", "id": 5301584251, "lat": 35.1023001, "lon": -80.9518385, "tags": {"bench": "no", "bin": "no", "bus": "yes", "direction": "outbound", "highway": "bus_stop", "name": "Carowinds Boulevard at John Deere", "network": "CATS", "network:wikidata": "Q5085831", "operator": "Charlotte Area Transit System", "public_transport": "platform", "ref": "46175", "route_ref": "42", "shelter": "no"}}, {"type": "node", "id": 5301584252, "lat": 35.1001111, "lon": -80.9481604, "tags": {"bench": "no", "bin": "no", "bus": "yes", "highway": "bus_stop", "name": "Carowinds Boulevard at Choate Circle", "operator": "Charlotte Area Tansit System", "public_transport": "platform", "ref": "46174", "route_ref": "42", "shelter": "no"}}, {"type": "node", "id": 5301584253, "lat": 35.0986732, "lon": -80.9453653, "tags": {"bench": "no", "bin": "no", "bus": "yes", "highway": "bus_stop", "name": "Carowinds Boulevard at Pleasant Road", "network": "CATS", "network:wikidata": "Q5085831", "operator": "Charlotte Area Transit System", "public_transport": "platform", "ref": "49334", "route_ref": "42", "shelter": "no"}}, {"type": "node", "id": 5301584254, "lat": 35.0962655, "lon": -80.9383467, "tags": {"bench": "no", "bin": "no", "bus": "yes", "highway": "bus_stop", "name": "Carowinds Boulevard at Avenue of the Carolinas", "network": "CATS", "operator": "Charlotte Area Tansit System", "public_transport": "platform", "ref": "52800", "route_ref": "42", "shelter": "no"}}, {"type": "node", "id": 5301584255, "lat": 35.095564, "lon": -80.9375944, "tags": {"bench": "no", "bin": "no", "bus": "yes", "highway": "bus_stop", "name": "Carowinds Boulevard at Lakemont Boulevard", "network": "CATS", "operator": "Charlotte Area Tansit System", "public_transport": "platform", "ref": "52790", "route_ref": "42", "shelter": "no"}}, {"type": "node", "id": 5301584256, "lat": 35.1160641, "lon": -80.926397, "tags": {"bench": "no", "bus": "yes", "highway": "bus_stop", "name": "Westinghouse & I-77", "network": "CATS", "network:wikidata": "Q5085831", "operator": "Charlotte Area Transit System", "public_transport": "platform", "shelter": "no"}}, {"type": "node", "id": 5301584257, "lat": 35.11584, "lon": -80.9266284, "tags": {"bench": "no", "bus": "yes", "highway": "bus_stop", "name": "Westinghouse & I-77", "network": "CATS", "network:wikidata": "Q5085831", "operator": "Charlotte Area Transit System", "public_transport": "platform", "shelter": "no"}}, {"type": "node", "id": 5301584258, "lat": 35.1173562, "lon": -80.9295165, "tags": {"bench": "no", "bus": "yes", "highway": "bus_stop", "name": "Westinghouse & Granite", "network": "CATS", "network:wikidata": "Q5085831", "operator": "Charlotte Area Transit System", "public_transport": "platform", "shelter": "no"}}, {"type": "node", "id": 5301584259, "lat": 35.117049, "lon": -80.929363, "tags": {"bench": "no", "bus": "yes", "highway": "bus_stop", "name": "Westinghouse & Granite", "network": "CATS", "network:wikidata": "Q5085831", "operator": "Charlotte Area Transit System", "public_transport": "platform", "shelter": "no"}}, {"type": "node", "id": 5301584260, "lat": 35.1248109, "lon": -80.935156, "tags": {"bench": "no", "bus": "yes", "highway": "bus_stop", "name": "Westinghouse & South Commerce", "network": "CATS", "network:wikidata": "Q5085831", "operator": "Charlotte Area Transit System", "public_transport": "platform", "shelter": "no"}}, {"type": "node", "id": 5301584261, "lat": 35.1211011, "lon": -80.9334805, "tags": {"bench": "no", "bus": "yes", "highway": "bus_stop", "name": "Westinghouse & Cordage", "network": "CATS", "network:wikidata": "Q5085831", "operator": "Charlotte Area Transit System", "public_transport": "platform", "shelter": "no"}}, {"type": "node", "id": 5301584262, "lat": 35.1222785, "lon": -80.9338282, "tags": {"bench": "no", "bus": "yes", "highway": "bus_stop", "name": "Westinghouse & Cordage", "network": "CATS", "network:wikidata": "Q5085831", "operator": "Charlotte Area Transit System", "public_transport": "platform", "shelter": "no"}}, {"type": "node", "id": 5301584263, "lat": 35.1252178, "lon": -80.9357223, "tags": {"bench": "no", "bus": "yes", "highway": "bus_stop", "name": "Westinghouse & Brookford", "network": "CATS", "network:wikidata": "Q5085831", "operator": "Charlotte Area Transit System", "public_transport": "platform", "shelter": "no"}}, {"type": "node", "id": 5301584264, "lat": 35.129388, "lon": -80.9394285, "tags": {"bench": "no", "bus": "yes", "highway": "bus_stop", "name": "Westinghouse & Tryon", "network": "CATS", "network:wikidata": "Q5085831", "operator": "Charlotte Area Transit System", "public_transport": "platform", "shelter": "no"}}, {"type": "node", "id": 5301584265, "lat": 35.1292234, "lon": -80.9402999, "tags": {"bench": "no", "bus": "yes", "highway": "bus_stop", "name": "Westinghouse & Tryon", "network": "CATS", "network:wikidata": "Q5085831", "operator": "Charlotte Area Transit System", "public_transport": "platform", "shelter": "no"}}, {"type": "node", "id": 5301615810, "lat": 35.1302164, "lon": -80.9433054, "tags": {"bench": "no", "bus": "yes", "highway": "bus_stop", "name": "Westinghouse & Tryon", "network": "CATS", "network:wikidata": "Q5085831", "operator": "Charlotte Area Transit System", "public_transport": "platform", "shelter": "no"}}, {"type": "node", "id": 5301615811, "lat": 35.1302322, "lon": -80.9444785, "tags": {"bench": "no", "bus": "yes", "highway": "bus_stop", "name": "Westinghouse & Tryon", "network": "CATS", "network:wikidata": "Q5085831", "operator": "Charlotte Area Transit System", "public_transport": "platform", "shelter": "no"}}, {"type": "node", "id": 5306697672, "lat": 35.1349044, "lon": -80.8764683, "tags": {"highway": "bus_stop", "public_transport": "platform"}}, {"type": "node", "id": 5306697673, "lat": 35.1347189, "lon": -80.876425, "tags": {"highway": "bus_stop", "public_transport": "platform"}}, {"type": "node", "id": 5306697674, "lat": 35.1345157, "lon": -80.8763776, "tags": {"highway": "bus_stop", "public_transport": "platform"}}, {"type": "node", "id": 5306697675, "lat": 35.1343576, "lon": -80.8763408, "tags": {"highway": "bus_stop", "public_transport": "platform"}}, {"type": "node", "id": 5310892403, "lat": 35.2334173, "lon": -80.8068764, "tags": {"bench": "no", "bus": "yes", "highway": "bus_stop", "name": "The Plaza & Marguerite Ave", "network": "CATS", "network:wikidata": "Q5085831", "operator": "Charlotte Area Transit System", "public_transport": "platform", "shelter": "no"}}, {"type": "node", "id": 5339316562, "lat": 35.2246046, "lon": -80.8953325, "tags": {"bench": "yes", "bus": "yes", "highway": "bus_stop", "name": "Wilkinson Boulevard at Ashley Road", "operator": "Charlotte Area Transit System", "public_transport": "platform", "shelter": "yes"}}, {"type": "node", "id": 5339316579, "lat": 35.2245513, "lon": -80.893748, "tags": {"bench": "yes", "bin": "yes", "bus": "yes", "highway": "bus_stop", "name": "Wilkinson Boulevard at Ashley Road", "network": "Charlotte Area Transit System", "public_transport": "platform", "ref": "35180", "route_ref": "5;35;235", "shelter": "yes"}}, {"type": "node", "id": 5374088341, "lat": 35.1312563, "lon": -80.9474489, "tags": {"bench": "no", "bus": "yes", "highway": "bus_stop", "lit": "no", "name": "Westinghouse & D Ducks", "network": "CATS", "network:wikidata": "Q5085831", "operator": "Charlotte Area Transit System", "public_transport": "platform", "shelter": "no"}}, {"type": "node", "id": 5374088342, "lat": 35.1311461, "lon": -80.9476318, "tags": {"bench": "no", "bus": "yes", "highway": "bus_stop", "lit": "no", "name": "Westinghouse & D Ducks", "network": "CATS", "network:wikidata": "Q5085831", "operator": "Charlotte Area Transit System", "public_transport": "platform", "shelter": "no"}}, {"type": "node", "id": 5374088343, "lat": 35.1325503, "lon": -80.9550135, "tags": {"bench": "no", "bus": "yes", "highway": "bus_stop", "lit": "no", "name": "Westinghouse & Forsyth Park", "network": "CATS", "network:wikidata": "Q5085831", "operator": "Charlotte Area Transit System", "public_transport": "platform", "shelter": "no"}}, {"type": "node", "id": 5374088344, "lat": 35.132409, "lon": -80.9551793, "tags": {"bench": "no", "bus": "yes", "highway": "bus_stop", "lit": "no", "name": "Westinghouse & Forsyth Park", "network": "CATS", "network:wikidata": "Q5085831", "operator": "Charlotte Area Transit System", "public_transport": "platform", "shelter": "no"}}, {"type": "node", "id": 5374088346, "lat": 35.1326229, "lon": -80.9584904, "tags": {"bench": "no", "bus": "yes", "highway": "bus_stop", "lit": "no", "name": "Westinghouse & Fruehauf", "network": "CATS", "network:wikidata": "Q5085831", "operator": "Charlotte Area Transit System", "public_transport": "platform", "shelter": "no"}}, {"type": "node", "id": 5374088347, "lat": 35.1324968, "lon": -80.9590017, "tags": {"bench": "no", "bus": "yes", "highway": "bus_stop", "lit": "no", "name": "Westinghouse & Fruehauf", "network": "CATS", "network:wikidata": "Q5085831", "operator": "Charlotte Area Transit System", "public_transport": "platform", "shelter": "no"}}, {"type": "node", "id": 5374088350, "lat": 35.1328031, "lon": -80.9666573, "tags": {"bench": "no", "bus": "yes", "highway": "bus_stop", "lit": "no", "name": "Westinghouse & Goodrich", "network": "CATS", "network:wikidata": "Q5085831", "operator": "Charlotte Area Transit System", "public_transport": "platform", "shelter": "no"}}, {"type": "node", "id": 5374088351, "lat": 35.1326678, "lon": -80.9666904, "tags": {"bench": "no", "bus": "yes", "highway": "bus_stop", "lit": "no", "name": "Westinghouse & Goodrich", "network": "CATS", "network:wikidata": "Q5085831", "operator": "Charlotte Area Transit System", "public_transport": "platform", "shelter": "no"}}, {"type": "node", "id": 5374088352, "lat": 35.1359722, "lon": -80.9733388, "tags": {"bench": "no", "bus": "yes", "highway": "bus_stop", "lit": "no", "name": "Westinghouse Commons & Westinghouse", "network": "CATS", "network:wikidata": "Q5085831", "operator": "Charlotte Area Transit System", "public_transport": "platform", "shelter": "no"}}, {"type": "node", "id": 5374088353, "lat": 35.1363371, "lon": -80.973485, "tags": {"bench": "no", "bus": "yes", "highway": "bus_stop", "lit": "no", "name": "Westinghouse Commons & Westinghouse", "network": "CATS", "network:wikidata": "Q5085831", "operator": "Charlotte Area Transit System", "public_transport": "platform", "shelter": "no"}}, {"type": "node", "id": 5374088354, "lat": 35.1370164, "lon": -80.9706427, "tags": {"bench": "no", "bus": "yes", "highway": "bus_stop", "lit": "no", "name": "Westlake & Turtle Creek", "network": "CATS", "network:wikidata": "Q5085831", "operator": "Charlotte Area Transit System", "public_transport": "platform", "shelter": "no"}}, {"type": "node", "id": 5374088355, "lat": 35.1367554, "lon": -80.9704196, "tags": {"bench": "no", "bus": "yes", "highway": "bus_stop", "lit": "no", "name": "Westlake & Turtle Creek", "network": "CATS", "network:wikidata": "Q5085831", "operator": "Charlotte Area Transit System", "public_transport": "platform", "shelter": "no"}}, {"type": "node", "id": 5374088356, "lat": 35.1409897, "lon": -80.9671455, "tags": {"bench": "no", "bus": "yes", "highway": "bus_stop", "lit": "no", "name": "Westlake & Display", "network": "CATS", "network:wikidata": "Q5085831", "operator": "Charlotte Area Transit System", "public_transport": "platform", "shelter": "no"}}, {"type": "node", "id": 5374088357, "lat": 35.140595, "lon": -80.9668339, "tags": {"bench": "no", "bus": "yes", "highway": "bus_stop", "lit": "no", "name": "Westlake & Display", "network": "CATS", "network:wikidata": "Q5085831", "operator": "Charlotte Area Transit System", "public_transport": "platform", "shelter": "no"}}, {"type": "node", "id": 5374088358, "lat": 35.1424472, "lon": -80.9677703, "tags": {"bench": "no", "bus": "yes", "highway": "bus_stop", "lit": "no", "name": "Westlake @ ITW Cooking", "network": "CATS", "network:wikidata": "Q5085831", "operator": "Charlotte Area Transit System", "public_transport": "platform", "shelter": "no"}}, {"type": "node", "id": 5374088359, "lat": 35.1423686, "lon": -80.9711933, "tags": {"bench": "no", "bus": "yes", "highway": "bus_stop", "lit": "no", "name": "Westlake @ Schaefer Shelving", "network": "CATS", "network:wikidata": "Q5085831", "operator": "Charlotte Area Transit System", "public_transport": "platform", "shelter": "no"}}, {"type": "node", "id": 5374088360, "lat": 35.1418937, "lon": -80.971928, "tags": {"bench": "no", "bus": "yes", "highway": "bus_stop", "lit": "no", "name": "Westlake @ Schaefer Shelving", "network": "CATS", "network:wikidata": "Q5085831", "operator": "Charlotte Area Transit System", "public_transport": "platform", "shelter": "no"}}, {"type": "node", "id": 5374088361, "lat": 35.1423938, "lon": -80.974701, "tags": {"bench": "no", "bus": "yes", "highway": "bus_stop", "lit": "no", "name": "Steele Creek & Steele Meadow", "network": "CATS", "network:wikidata": "Q5085831", "operator": "Charlotte Area Transit System", "public_transport": "platform", "shelter": "no"}}, {"type": "node", "id": 5374088362, "lat": 35.1421925, "lon": -80.9744162, "tags": {"bench": "no", "bus": "yes", "highway": "bus_stop", "lit": "no", "name": "Steele Creek & Steele Meadow", "network": "CATS", "network:wikidata": "Q5085831", "operator": "Charlotte Area Transit System", "public_transport": "platform", "shelter": "no"}}, {"type": "node", "id": 5374088366, "lat": 35.1452031, "lon": -80.9730289, "tags": {"bench": "yes", "bus": "yes", "highway": "bus_stop", "lit": "yes", "name": "Steele Creek & Branch Bend", "network": "CATS", "network:wikidata": "Q5085831", "operator": "Charlotte Area Transit System", "public_transport": "platform", "shelter": "no"}}, {"type": "node", "id": 5374088367, "lat": 35.1451872, "lon": -80.9726952, "tags": {"bench": "yes", "bus": "yes", "highway": "bus_stop", "lit": "yes", "name": "Steele Creek & Branch Bend", "network": "CATS", "network:wikidata": "Q5085831", "operator": "Charlotte Area Transit System", "public_transport": "platform", "shelter": "no"}}, {"type": "node", "id": 5374088368, "lat": 35.1491913, "lon": -80.9715097, "tags": {"bench": "no", "bus": "yes", "highway": "bus_stop", "lit": "no", "name": "Steele Creek & Collingham", "network": "CATS", "network:wikidata": "Q5085831", "operator": "Charlotte Area Transit System", "public_transport": "platform", "shelter": "no"}}, {"type": "node", "id": 5374088369, "lat": 35.1511116, "lon": -80.9707834, "tags": {"bench": "no", "bin": "no", "bus": "yes", "highway": "bus_stop", "lit": "no", "name": "Steele Creek & Steele Oaks", "network": "CATS", "network:wikidata": "Q5085831", "operator": "Charlotte Area Transit System", "public_transport": "platform", "shelter": "no"}}, {"type": "node", "id": 5374088370, "lat": 35.1536067, "lon": -80.9698782, "tags": {"bench": "no", "bus": "yes", "highway": "bus_stop", "lit": "no", "name": "Steele Creek & Brown Grier", "network": "CATS", "network:wikidata": "Q5085831", "operator": "Charlotte Area Transit System", "public_transport": "platform", "shelter": "no"}}, {"type": "node", "id": 5374088371, "lat": 35.1544746, "lon": -80.9702128, "tags": {"bench": "no", "bus": "yes", "highway": "bus_stop", "lit": "no", "name": "Steele Creek & Brown Grier", "network": "CATS", "network:wikidata": "Q5085831", "operator": "Charlotte Area Transit System", "public_transport": "platform", "shelter": "no"}}, {"type": "node", "id": 5374088372, "lat": 35.1620277, "lon": -80.9704282, "tags": {"bench": "no", "bus": "yes", "highway": "bus_stop", "lit": "yes", "name": "Steele Creek & Dixie River", "network": "CATS", "network:wikidata": "Q5085831", "operator": "Charlotte Area Transit System", "public_transport": "platform", "shelter": "no"}}, {"type": "node", "id": 5374088373, "lat": 35.1631718, "lon": -80.9706519, "tags": {"bench": "no", "bus": "yes", "highway": "bus_stop", "lit": "yes", "name": "Dixie River & Steele Creek", "network": "CATS", "network:wikidata": "Q5085831", "operator": "Charlotte Area Transit System", "public_transport": "platform", "shelter": "no"}}, {"type": "node", "id": 5374088374, "lat": 35.1702827, "lon": -80.9727294, "tags": {"bench": "yes", "bus": "yes", "highway": "bus_stop", "lit": "yes", "name": "Charlotte Premium Outlets", "network": "CATS", "network:wikidata": "Q5085831", "operator": "Charlotte Area Transit System", "public_transport": "platform", "shelter": "yes"}}, {"type": "node", "id": 5374088375, "lat": 35.1726652, "lon": -80.9620345, "tags": {"bench": "no", "bus": "yes", "highway": "bus_stop", "lit": "yes", "name": "Shopton & Robbie", "network": "CATS", "network:wikidata": "Q5085831", "operator": "Charlotte Area Transit System", "public_transport": "platform", "shelter": "no"}}, {"type": "node", "id": 5429301918, "lat": 35.2140156, "lon": -80.7717095, "tags": {"bench": "yes", "bus": "yes", "highway": "bus_stop", "lit": "yes", "name": "Central & Norland", "network": "CATS", "network:wikidata": "Q5085831", "operator": "Charlotte Area Transit System", "public_transport": "platform", "shelter": "yes"}}, {"type": "node", "id": 5429301919, "lat": 35.2143151, "lon": -80.7718091, "tags": {"bench": "yes", "bus": "yes", "highway": "bus_stop", "lit": "yes", "name": "Central & Norland", "network": "CATS", "network:wikidata": "Q5085831", "operator": "Charlotte Area Transit System", "public_transport": "platform", "shelter": "yes"}}, {"type": "node", "id": 5437844405, "lat": 35.3123936, "lon": -80.8637424, "tags": {"bench": "no", "bus": "yes", "highway": "bus_stop", "lit": "no", "name": "Beatties Ford & McIntyre", "network": "CATS", "network:wikidata": "Q5085831", "operator": "Charlotte Area Transit System", "public_transport": "platform", "shelter": "no"}}, {"type": "node", "id": 5437844406, "lat": 35.3121419, "lon": -80.8634894, "tags": {"bench": "no", "bus": "yes", "highway": "bus_stop", "lit": "no", "name": "Beatties Ford & McIntyre", "network": "CATS", "network:wikidata": "Q5085831", "operator": "Charlotte Area Transit System", "public_transport": "platform", "shelter": "no"}}, {"type": "node", "id": 5534575978, "lat": 35.2968732, "lon": -80.74052, "tags": {"bench": "no", "bus": "yes", "highway": "bus_stop", "lit": "yes", "name": "University City @ Town Center Plaza", "network": "CATS", "network:wikidata": "Q5085831", "operator": "Charlotte Area Transit System", "public_transport": "platform", "shelter": "no"}}, {"type": "node", "id": 5534575979, "lat": 35.2974437, "lon": -80.7401008, "tags": {"bench": "yes", "bus": "yes", "highway": "bus_stop", "lit": "yes", "name": "University City @ Town Center Plaza", "network": "CATS", "network:wikidata": "Q5085831", "operator": "Charlotte Area Transit System", "public_transport": "platform", "shelter": "no"}}, {"type": "node", "id": 5597374591, "lat": 35.2757453, "lon": -80.7198775, "tags": {"bus": "yes", "highway": "bus_stop", "public_transport": "platform"}}, {"type": "node", "id": 5597383436, "lat": 35.2790306, "lon": -80.694123, "tags": {"bus": "yes", "highway": "bus_stop", "public_transport": "platform"}}, {"type": "node", "id": 5661785115, "lat": 35.3046758, "lon": -80.9376657, "tags": {"bench": "no", "bus": "yes", "highway": "bus_stop", "lit": "yes", "name": "Bellhaven & Rozwood", "operator": "Charlotte Area Transportation System", "public_transport": "platform", "shelter": "no"}}, {"type": "node", "id": 5661785116, "lat": 35.3039853, "lon": -80.9360434, "tags": {"bench": "yes", "bus": "yes", "highway": "bus_stop", "lit": "yes", "name": "McClure & Bellhaven", "operator": "Charlotte Area Transportation System", "public_transport": "platform", "shelter": "no"}}, {"type": "node", "id": 5764307592, "lat": 35.2123146, "lon": -80.8582703, "tags": {"bus": "yes", "highway": "bus_stop", "public_transport": "platform"}}, {"type": "node", "id": 6296899988, "lat": 35.1203422, "lon": -80.8817498, "tags": {"bus": "yes", "departures_board": "timetable", "highway": "bus_stop", "name": "Sharon Road West", "network": "CATS", "operator": "Charlotte Area Transit System", "public_transport": "platform", "surface": "concrete"}}, {"type": "node", "id": 6296926986, "lat": 35.1186293, "lon": -80.8816032, "tags": {"bus": "yes", "departures_board": "timetable", "highway": "bus_stop", "name": "Sharon Road West", "network": "CATS", "operator": "Charlotte Area Transit System", "public_transport": "platform"}}, {"type": "node", "id": 6296926987, "lat": 35.1193148, "lon": -80.8815716, "tags": {"bus": "yes", "departures_board": "timetable", "highway": "bus_stop", "name": "Sharon Road West", "network": "CATS", "operator": "Charlotte Area Transit System", "public_transport": "platform"}}, {"type": "node", "id": 6296926989, "lat": 35.1132637, "lon": -80.884453, "tags": {"bus": "yes", "highway": "bus_stop", "name": "Crump & Westinghouse", "network": "CATS", "operator": "Charlotte Area Transit System", "public_transport": "platform"}}, {"type": "node", "id": 6296926990, "lat": 35.1128246, "lon": -80.8848413, "tags": {"bus": "yes", "highway": "bus_stop", "name": "Crump & Westinghouse", "network": "CATS", "operator": "Charlotte Area Transit System", "public_transport": "platform"}}, {"type": "node", "id": 6296926993, "lat": 35.1122525, "lon": -80.8956733, "tags": {"bus": "yes", "highway": "bus_stop", "name": "Westinghouse & Old Nations Ford", "network": "CATS", "operator": "Charlotte Area Transit System", "public_transport": "platform"}}, {"type": "node", "id": 6296927008, "lat": 35.1109385, "lon": -80.9056471, "tags": {"bus": "yes", "highway": "bus_stop", "name": "Westinghouse & Culp", "network": "CATS", "network:wikidata": "Q5085831", "operator": "Charlotte Area Transit System", "public_transport": "platform"}}, {"type": "node", "id": 6296927009, "lat": 35.1107528, "lon": -80.9056522, "tags": {"bus": "yes", "highway": "bus_stop", "name": "Westinghouse & Culp", "network": "CATS", "network:wikidata": "Q5085831", "operator": "Charlotte Area Transit System", "public_transport": "platform"}}, {"type": "node", "id": 6296927029, "lat": 35.1119575, "lon": -80.8959693, "tags": {"bus": "yes", "highway": "bus_stop", "name": "Westinghouse & Old Nations Ford", "network": "CATS", "operator": "Charlotte Area Transit System", "public_transport": "platform"}}, {"type": "node", "id": 6297002187, "lat": 35.1112092, "lon": -80.9092458, "tags": {"bus": "yes", "highway": "bus_stop", "name": "Westinghouse & Downs", "network": "CATS", "network:wikidata": "Q5085831", "operator": "Charlotte Area Transit System", "public_transport": "platform"}}, {"type": "node", "id": 6297002190, "lat": 35.1108771, "lon": -80.909648, "tags": {"bus": "yes", "highway": "bus_stop", "name": "Westinghouse & Downs", "network": "CATS", "network:wikidata": "Q5085831", "operator": "Charlotte Area Transit System", "public_transport": "platform"}}, {"type": "node", "id": 6297002192, "lat": 35.1112448, "lon": -80.9151095, "tags": {"bus": "yes", "highway": "bus_stop", "name": "Westinghouse & Nations Ford", "network": "CATS", "network:wikidata": "Q5085831", "operator": "Charlotte Area Transit System", "public_transport": "platform"}}, {"type": "node", "id": 6297002193, "lat": 35.1112834, "lon": -80.9158705, "tags": {"bus": "yes", "highway": "bus_stop", "name": "Westinghouse & Nations Ford", "network": "CATS", "network:wikidata": "Q5085831", "operator": "Charlotte Area Transit System", "public_transport": "platform"}}, {"type": "node", "id": 6297002195, "lat": 35.1129447, "lon": -80.9207261, "tags": {"bus": "yes", "highway": "bus_stop", "name": "Westinghouse & Texland", "network": "CATS", "network:wikidata": "Q5085831", "operator": "Charlotte Area Transit System", "public_transport": "platform"}}, {"type": "node", "id": 6297002196, "lat": 35.1130673, "lon": -80.9203946, "tags": {"bus": "yes", "highway": "bus_stop", "name": "Westinghouse & Texland", "network": "CATS", "network:wikidata": "Q5085831", "operator": "Charlotte Area Transit System", "public_transport": "platform"}}, {"type": "node", "id": 6297002208, "lat": 35.1546377, "lon": -80.9700336, "tags": {"bus": "yes", "highway": "bus_stop", "name": "Steele Creek & Brown Grier", "network": "CATS", "network:wikidata": "Q5085831", "operator": "Charlotte Area Transit System", "public_transport": "platform"}}, {"type": "node", "id": 6297536647, "lat": 35.1950161, "lon": -80.8942505, "tags": {"bus": "yes", "departures_board": "timetable", "highway": "bus_stop", "name": "Rose Thorn", "network": "CATS", "network:wikidata": "Q5085831", "operator": "Charlotte Area Transit System", "public_transport": "platform", "surface": "concrete"}}, {"type": "node", "id": 6297536648, "lat": 35.1943571, "lon": -80.8950625, "tags": {"bus": "yes", "highway": "bus_stop", "name": "Pressley Rd & Rose Vine Pl", "network": "CATS", "network:wikidata": "Q5085831", "operator": "Charlotte Area Transit System", "public_transport": "platform"}}, {"type": "node", "id": 6297536649, "lat": 35.1944328, "lon": -80.8949326, "tags": {"bus": "yes", "highway": "bus_stop", "name": "Pressley Rd & Rose Vine Pl", "network": "CATS", "network:wikidata": "Q5085831", "operator": "Charlotte Area Transit System", "public_transport": "platform"}}, {"type": "node", "id": 6297536651, "lat": 35.1893646, "lon": -80.8930587, "tags": {"bench": "yes", "bus": "yes", "departures_board": "timetable", "highway": "bus_stop", "name": "Pressley & Bishop", "network": "CATS", "network:wikidata": "Q5085831", "operator": "Charlotte Area Transit System", "public_transport": "platform", "surface": "concrete"}}, {"type": "node", "id": 6297536652, "lat": 35.1892202, "lon": -80.8930974, "tags": {"bus": "yes", "highway": "bus_stop", "name": "Pressley & Bishop", "network": "CATS", "network:wikidata": "Q5085831", "operator": "Charlotte Area Transit System", "public_transport": "platform"}}, {"type": "node", "id": 6297536654, "lat": 35.1859056, "lon": -80.8900046, "tags": {"bus": "yes", "departures_board": "yes", "highway": "bus_stop", "name": "Pressley & Charlotte Park", "network": "CATS", "network:wikidata": "Q5085831", "operator": "Charlotte Area Transit System", "public_transport": "platform", "surface": "concrete"}}, {"type": "node", "id": 6297536657, "lat": 35.185681, "lon": -80.8893537, "tags": {"bus": "yes", "highway": "bus_stop", "name": "Pressley & Charlotte Park", "network": "CATS", "network:wikidata": "Q5085831", "operator": "Charlotte Area Transit System", "public_transport": "platform"}}, {"type": "node", "id": 6297542099, "lat": 35.1866365, "lon": -80.8909466, "tags": {"bus": "yes", "highway": "bus_stop", "name": "Pressley & Stuart Andrew", "network": "CATS", "network:wikidata": "Q5085831", "operator": "Charlotte Area Transit System", "public_transport": "platform"}}, {"type": "node", "id": 6297542104, "lat": 35.1878782, "lon": -80.8918823, "tags": {"bus": "yes", "highway": "bus_stop", "name": "Pressley @ Mid-Carolina Reprographics", "network": "CATS", "network:wikidata": "Q5085831", "operator": "Charlotte Area Transit System", "public_transport": "platform"}}, {"type": "node", "id": 6297542106, "lat": 35.1845467, "lon": -80.8859611, "tags": {"bench": "yes", "bus": "yes", "highway": "bus_stop", "name": "Tryon & Pressley", "network": "CATS", "network:wikidata": "Q5085831", "operator": "Charlotte Area Transit System", "public_transport": "platform", "route_ref": "12, 16", "shelter": "yes", "surface": "concrete"}}, {"type": "node", "id": 6297542107, "lat": 35.1850389, "lon": -80.8858507, "tags": {"bench": "no", "bus": "yes", "highway": "bus_stop", "name": "Tryon & Pressley", "network": "CATS", "network:wikidata": "Q5085831", "operator": "Charlotte Area Transit System", "public_transport": "platform", "route_ref": "12, 16", "shelter": "no"}}, {"type": "node", "id": 6297542110, "lat": 35.1844275, "lon": -80.8874936, "tags": {"bus": "yes", "highway": "bus_stop", "name": "Pressley & Tryon", "network": "CATS", "network:wikidata": "Q5085831", "operator": "Charlotte Area Transit System", "public_transport": "platform"}}, {"type": "node", "id": 6297652207, "lat": 35.1872075, "lon": -80.8841524, "tags": {"bus": "yes", "highway": "bus_stop", "name": "Tryon & Orchard", "network": "CATS", "network:wikidata": "Q5085831", "operator": "Charlotte Area Transit System", "public_transport": "platform"}}, {"type": "node", "id": 6297652208, "lat": 35.1870995, "lon": -80.8839549, "tags": {"bus": "yes", "highway": "bus_stop", "name": "Tryon & Orchard", "network": "CATS", "network:wikidata": "Q5085831", "operator": "Charlotte Area Transit System", "public_transport": "platform"}}, {"type": "node", "id": 6297652211, "lat": 35.1890605, "lon": -80.8827129, "tags": {"bus": "yes", "highway": "bus_stop", "name": "Tryon & Peterson", "network": "CATS", "network:wikidata": "Q5085831", "operator": "Charlotte Area Transit System", "public_transport": "platform"}}, {"type": "node", "id": 6297652214, "lat": 35.1890012, "lon": -80.8824711, "tags": {"bus": "yes", "highway": "bus_stop", "name": "Tryon & Peterson", "network": "CATS", "network:wikidata": "Q5085831", "operator": "Charlotte Area Transit System", "public_transport": "platform"}}, {"type": "node", "id": 6297652215, "lat": 35.1909065, "lon": -80.8812686, "tags": {"bus": "yes", "highway": "bus_stop", "name": "Tryon & Cama", "network": "CATS", "network:wikidata": "Q5085831", "operator": "Charlotte Area Transit System", "public_transport": "platform"}}, {"type": "node", "id": 6297652218, "lat": 35.1907817, "lon": -80.8810866, "tags": {"bus": "yes", "highway": "bus_stop", "name": "Tryon & Cama", "network": "CATS", "network:wikidata": "Q5085831", "operator": "Charlotte Area Transit System", "public_transport": "platform"}}, {"type": "node", "id": 6297652219, "lat": 35.1924433, "lon": -80.8797832, "tags": {"bus": "yes", "highway": "bus_stop", "name": "Tryon & Bowman", "network": "CATS", "network:wikidata": "Q5085831", "operator": "Charlotte Area Transit System", "public_transport": "platform"}}, {"type": "node", "id": 6297652222, "lat": 35.1928052, "lon": -80.8797776, "tags": {"bus": "yes", "highway": "bus_stop", "name": "Tryon & Bowman", "network": "CATS", "network:wikidata": "Q5085831", "operator": "Charlotte Area Transit System", "public_transport": "platform"}}, {"type": "node", "id": 6297652228, "lat": 35.1944559, "lon": -80.8774097, "tags": {"bus": "yes", "highway": "bus_stop", "name": "Tryclan & Tryon", "network": "CATS", "network:wikidata": "Q5085831", "operator": "Charlotte Area Transit System", "public_transport": "platform"}}, {"type": "node", "id": 6297652364, "lat": 35.1915434, "lon": -80.8761137, "tags": {"bus": "yes", "departures_board": "timetable", "highway": "bus_stop", "name": "Scaleybark", "network": "CATS", "network:wikidata": "Q5085831", "operator": "Charlotte Area Transit System", "public_transport": "platform", "surface": "concrete"}}, {"type": "node", "id": 6297652366, "lat": 35.1910351, "lon": -80.874618, "tags": {"bus": "yes", "departures_board": "timetable", "highway": "bus_stop", "name": "Scaleybark", "network": "CATS", "network:wikidata": "Q5085831", "operator": "Charlotte Area Transit System", "public_transport": "platform"}}, {"type": "node", "id": 6297652386, "lat": 35.1953079, "lon": -80.8754745, "tags": {"bus": "yes", "highway": "bus_stop", "name": "Clanton & Dewitt", "network": "CATS", "network:wikidata": "Q5085831", "operator": "Charlotte Area Transit System", "public_transport": "platform"}}, {"type": "node", "id": 6297652387, "lat": 35.1950879, "lon": -80.8753685, "tags": {"bus": "yes", "highway": "bus_stop", "name": "Clanton & Dewitt", "network": "CATS", "network:wikidata": "Q5085831", "operator": "Charlotte Area Transit System", "public_transport": "platform"}}, {"type": "node", "id": 6297652388, "lat": 35.1952024, "lon": -80.8779112, "tags": {"bus": "yes", "highway": "bus_stop", "name": "Tryon & Blairhill", "network": "CATS", "network:wikidata": "Q5085831", "operator": "Charlotte Area Transit System", "public_transport": "platform"}}, {"type": "node", "id": 6297652391, "lat": 35.1954238, "lon": -80.8774638, "tags": {"bus": "yes", "highway": "bus_stop", "name": "Tryon & Clanton", "network": "CATS", "network:wikidata": "Q5085831", "operator": "Charlotte Area Transit System", "public_transport": "platform"}}, {"type": "node", "id": 6297652393, "lat": 35.196183, "lon": -80.8783252, "tags": {"bus": "yes", "highway": "bus_stop", "network": "CATS", "network:wikidata": "Q5085831", "operator": "Charlotte Area Transit System", "public_transport": "platform", "ref": "Clanton & Tryon"}}, {"type": "node", "id": 6297652396, "lat": 35.1963943, "lon": -80.8784567, "tags": {"bus": "yes", "highway": "bus_stop", "name": "Clanton & Tryon", "network": "CATS", "network:wikidata": "Q5085831", "operator": "Charlotte Area Transit System", "public_transport": "platform"}}, {"type": "node", "id": 6298295999, "lat": 35.1439503, "lon": -80.9285028, "tags": {"bus": "yes", "highway": "bus_stop", "name": "Whitehall Commons", "network": "CATS", "network:wikidata": "Q5085831", "operator": "Charlotte Area Transit System", "public_transport": "platform"}}, {"type": "node", "id": 6298296006, "lat": 35.1443475, "lon": -80.931239, "tags": {"bus": "yes", "departures_board": "timetable", "highway": "bus_stop", "name": "Whitehall Commons", "network": "CATS", "network:wikidata": "Q5085831", "operator": "Charlotte Area Transit System", "public_transport": "platform", "surface": "concrete"}}, {"type": "node", "id": 6298296008, "lat": 35.1442684, "lon": -80.93151, "tags": {"bus": "yes", "departures_board": "timetable", "highway": "bus_stop", "name": "Whitehall Commons", "network": "CATS", "network:wikidata": "Q5085831", "operator": "Charlotte Area Transit System", "public_transport": "platform", "surface": "concrete"}}, {"type": "node", "id": 6298296013, "lat": 35.1463889, "lon": -80.9360298, "tags": {"bus": "yes", "departures_board": "timetable", "highway": "bus_stop", "name": "Whitehall Commons", "network": "CATS", "network:wikidata": "Q5085831", "operator": "Charlotte Area Transit System", "public_transport": "platform", "surface": "concrete"}}, {"type": "node", "id": 6298296016, "lat": 35.146129, "lon": -80.9359285, "tags": {"bus": "yes", "departures_board": "timetable", "highway": "bus_stop", "name": "Whitehall Commons", "network": "CATS", "network:wikidata": "Q5085831", "operator": "Charlotte Area Transit System", "public_transport": "platform"}}, {"type": "node", "id": 6298296017, "lat": 35.1477338, "lon": -80.929705, "tags": {"bus": "yes", "highway": "bus_stop", "name": "Whitehall Commons", "network": "CATS", "network:wikidata": "Q5085831", "operator": "Charlotte Area Transit System", "public_transport": "platform"}}, {"type": "node", "id": 6298296173, "lat": 35.1483546, "lon": -80.9339651, "tags": {"bus": "yes", "highway": "bus_stop", "name": "Arrowood & Whitehall Commons Center", "network": "CATS", "network:wikidata": "Q5085831", "operator": "Charlotte Area Transit System", "public_transport": "platform"}}, {"type": "node", "id": 6298296175, "lat": 35.1477483, "lon": -80.9324644, "tags": {"bus": "yes", "highway": "bus_stop", "name": "Arrowood & Whitehall Commons Center", "network": "CATS", "network:wikidata": "Q5085831", "operator": "Charlotte Area Transit System", "public_transport": "platform"}}, {"type": "node", "id": 6298296177, "lat": 35.1474297, "lon": -80.9301839, "tags": {"bus": "yes", "highway": "bus_stop", "name": "Whitehall Commons", "network": "CATS", "network:wikidata": "Q5085831", "operator": "Charlotte Area Transit System", "public_transport": "platform"}}, {"type": "node", "id": 6298358569, "lat": 35.1059596, "lon": -80.9823224, "tags": {"bus": "yes", "highway": "bus_stop", "name": "Tryon Park at Rivergate", "network": "CATS", "network:wikidata": "Q5085831", "operator": "Charlotte Area Transit System", "public_transport": "platform"}}, {"type": "node", "id": 6298412015, "lat": 35.1022032, "lon": -80.9836185, "tags": {"bus": "yes", "departures_board": "timetable", "highway": "bus_stop", "name": "Rivergate", "network": "CATS", "network:wikidata": "Q5085831", "operator": "Charlotte Area Transit System", "public_transport": "platform"}}, {"type": "node", "id": 6298412016, "lat": 35.1020928, "lon": -80.9836253, "tags": {"bus": "yes", "departures_board": "timetable", "highway": "bus_stop", "name": "Rivergate", "network": "CATS", "network:wikidata": "Q5085831", "operator": "Charlotte Area Transit System", "public_transport": "platform"}}, {"type": "node", "id": 6298412022, "lat": 35.1000899, "lon": -80.9921098, "tags": {"bus": "yes", "departures_board": "timetable", "highway": "bus_stop", "name": "CHS Steele Creek", "network": "CATS", "network:wikidata": "Q5085831", "operator": "Charlotte Area Transit System", "public_transport": "platform", "surface": "concrete"}}, {"type": "node", "id": 6299526205, "lat": 35.1075951, "lon": -80.8832321, "tags": {"bus": "yes", "departures_board": "timetable", "highway": "bus_stop", "name": "I-485/South Boulevard", "network": "CATS", "network:wikidata": "Q5085831", "operator": "Charlotte Area Transit System", "public_transport": "platform", "ref": "2", "surface": "concrete"}}, {"type": "node", "id": 6299526206, "lat": 35.1077732, "lon": -80.8832541, "tags": {"bus": "yes", "departures_board": "timetable", "highway": "bus_stop", "name": "I-485/South Boulevard", "network": "CATS", "network:wikidata": "Q5085831", "operator": "Charlotte Area Transit System", "public_transport": "platform", "ref": "1", "surface": "concrete"}}, {"type": "node", "id": 6299526207, "lat": 35.1072318, "lon": -80.883033, "tags": {"bin": "yes", "bus": "yes", "departures_board": "timetable", "highway": "bus_stop", "name": "I-485/South Boulevard", "network": "CATS", "network:wikidata": "Q5085831", "operator": "Charlotte Area Transit System", "public_transport": "platform", "ref": "46070", "route_ref": "42", "surface": "concrete"}}, {"type": "node", "id": 6299526208, "lat": 35.1072461, "lon": -80.8828323, "tags": {"bus": "yes", "departures_board": "timetable", "highway": "bus_stop", "name": "I-485/South Boulevard", "network": "CATS", "network:wikidata": "Q5085831", "operator": "Charlotte Area Transit System", "public_transport": "platform", "ref": "4", "surface": "concrete"}}, {"type": "node", "id": 6300262967, "lat": 35.0967942, "lon": -80.9347603, "tags": {"bus": "yes", "departures_board": "timetable", "highway": "bus_stop", "name": "Carowinds Park and Ride", "network": "CATS", "operator": "Charlotte Area Transit System", "public_transport": "platform"}}, {"type": "node", "id": 6301201437, "lat": 35.1058977, "lon": -80.9373208, "tags": {"bus": "yes", "highway": "bus_stop", "name": "Carowinds", "network": "CATS", "network:wikidata": "Q5085831", "operator": "Charlotte Area Transit System", "public_transport": "platform"}}, {"type": "node", "id": 6301369188, "lat": 35.1002288, "lon": -80.9490862, "tags": {"bin": "no", "bus": "yes", "highway": "bus_stop", "name": "Carowinds Boulevard at Choate Circle", "network": "CATS", "network:wikidata": "Q5085831", "operator": "Charlotte Area Transit System", "public_transport": "platform", "ref": "46184", "route_ref": "42"}}, {"type": "node", "id": 6301855891, "lat": 35.1077615, "lon": -80.9584616, "tags": {"bin": "no", "bus": "yes", "highway": "bus_stop", "name": "South Lakes Drive at South Point Boulevard", "network": "CATS", "network:wikidata": "Q5085831", "operator": "Charlotte Area Transit System", "public_transport": "platform", "ref": "46177", "route_ref": "42"}}, {"type": "node", "id": 6301855910, "lat": 35.1114546, "lon": -80.960483, "tags": {"bin": "no", "bus": "yes", "highway": "bus_stop", "name": "South Ridge Drive at 13501", "network": "CATS", "network:wikidata": "Q5085831", "operator": "Charlotte Area Transit System", "public_transport": "platform", "ref": "46178", "route_ref": "42"}}, {"type": "node", "id": 6301855912, "lat": 35.1141395, "lon": -80.9597797, "tags": {"bin": "no", "bus": "yes", "highway": "bus_stop", "name": "South Ridge Drive at South Point Boulevard", "network": "CATS", "network:wikidata": "Q5085831", "operator": "Charlotte Area Transit System", "public_transport": "platform", "ref": "46179", "route_ref": "42"}}, {"type": "node", "id": 6301855914, "lat": 35.1439523, "lon": -80.9289837, "tags": {"bus": "yes", "highway": "bus_stop", "name": "Whitehall Commons", "network": "CATS", "network:wikidata": "Q5085831", "operator": "Charlotte Area Transit System", "public_transport": "platform"}}, {"type": "node", "id": 6302157564, "lat": 35.0950325, "lon": -80.8835528, "tags": {"bin": "no", "bus": "yes", "highway": "bus_stop", "name": "Pineville Road at Industrial Drive", "network": "CATS", "network:wikidata": "Q5085831", "operator": "Charlotte Area Transit System", "public_transport": "platform", "ref": "37100", "route_ref": "42;58"}}, {"type": "node", "id": 6302157565, "lat": 35.0944695, "lon": -80.8840204, "tags": {"bin": "no", "bus": "yes", "direction": "outbound", "highway": "bus_stop", "name": "Pineville Road at Industrial Drive", "network": "CATS", "network:wikidata": "Q5085831", "official_name": "Pineville Rd & Industrial Dr", "operator": "Charlotte Area Transit System", "public_transport": "platform", "ref": "46408", "route_ref": "42"}}, {"type": "node", "id": 6302163350, "lat": 35.1056033, "lon": -80.8810427, "tags": {"bench": "no", "bin": "no", "bus": "yes", "highway": "bus_stop", "name": "South Boulevard at 9716 (Texaco)", "network": "CATS", "network:wikidata": "Q5085831", "operator": "Charlotte Area Transit System", "public_transport": "platform", "ref": "36980", "route_ref": "42;58", "shelter": "no"}}, {"type": "node", "id": 6388499852, "lat": 35.2031075, "lon": -80.7375988, "tags": {"bus": "yes", "highway": "bus_stop", "public_transport": "platform"}}, {"type": "node", "id": 6509707340, "lat": 35.2331667, "lon": -80.8124981, "tags": {"bench": "yes", "bin": "yes", "bus": "yes", "departures_board": "timetable", "highway": "bus_stop", "name": "Parkwood Ave & Umstead St", "network": "CATS", "network:wikidata": "Q5085831", "operator": "Charlotte Area Transit System", "public_transport": "platform", "shelter": "no"}}, {"type": "node", "id": 6532463475, "lat": 35.17815, "lon": -80.8915682, "tags": {"bench": "yes", "bin": "yes", "bus": "yes", "highway": "bus_stop", "public_transport": "platform", "shelter": "yes"}}, {"type": "node", "id": 6781334103, "lat": 35.2196603, "lon": -80.8038375, "tags": {"bench": "yes", "bus": "yes", "highway": "bus_stop", "public_transport": "platform", "route_ref": "9", "shelter": "no"}}, {"type": "node", "id": 6781452785, "lat": 35.2288405, "lon": -80.8406292, "tags": {"bench": "no", "bus": "yes", "highway": "bus_stop", "public_transport": "platform", "route_ref": "11, 21", "shelter": "yes"}}, {"type": "node", "id": 6781643285, "lat": 35.2867218, "lon": -80.7613435, "tags": {"bench": "no", "bus": "yes", "highway": "bus_stop", "name": "Tryon St & Periwinkle Hill", "network": "CATS", "network:wikidata": "Q5085831", "operator": "Charlotte Area Transit System", "public_transport": "platform", "route_ref": "11", "shelter": "no"}}, {"type": "node", "id": 6781697085, "lat": 35.233596, "lon": -80.8524259, "tags": {"bench": "no", "bus": "yes", "highway": "bus_stop", "public_transport": "platform", "route_ref": "41X, 48X, 53X, 54X, 77X, 80X, 82X, 85X, 88X", "shelter": "no"}}, {"type": "node", "id": 6799464850, "lat": 35.2482765, "lon": -80.8358549, "tags": {"bus": "yes", "departures_board": "no", "highway": "bus_stop", "name": "Statesville Ave & Woodward Ave", "network": "CATS", "network:wikidata": "Q5085831", "operator": "Charlotte Area Transit System", "public_transport": "platform", "shelter": "no"}}, {"type": "node", "id": 6799464851, "lat": 35.2456065, "lon": -80.8363757, "tags": {"bus": "yes", "departures_board": "no", "highway": "bus_stop", "name": "Statesville Ave & Oaklawn Ave", "network": "CATS", "network:wikidata": "Q5085831", "operator": "Charlotte Area Transit System", "public_transport": "platform"}}, {"type": "node", "id": 6799464852, "lat": 35.243787, "lon": -80.8365493, "tags": {"bus": "yes", "highway": "bus_stop", "public_transport": "platform"}}, {"type": "node", "id": 6799464853, "lat": 35.2437932, "lon": -80.8366562, "tags": {"bus": "yes", "highway": "bus_stop", "public_transport": "platform"}}, {"type": "node", "id": 6799464854, "lat": 35.243833, "lon": -80.8326106, "tags": {"bus": "yes", "highway": "bus_stop", "public_transport": "platform"}}, {"type": "node", "id": 6799464855, "lat": 35.2447386, "lon": -80.8319161, "tags": {"bus": "yes", "highway": "bus_stop", "public_transport": "platform"}}, {"type": "node", "id": 6799464856, "lat": 35.2456486, "lon": -80.8312221, "tags": {"bus": "yes", "highway": "bus_stop", "public_transport": "platform"}}, {"type": "node", "id": 8544361456, "lat": 35.2127896, "lon": -80.8184624, "tags": {"bench": "no", "bin": "yes", "bus": "yes", "highway": "bus_stop", "name": "7th Street & Caswell Avenue", "network": "CATS", "network:wikidata": "Q5085831", "operator": "Charlotte Area Transit System", "public_transport": "platform", "shelter": "no"}}, {"type": "node", "id": 8544383752, "lat": 35.2134858, "lon": -80.8194833, "tags": {"bench": "no", "bin": "yes", "bus": "yes", "highway": "bus_stop", "name": "7th Street & Clement Avenue", "network": "CATS", "network:wikidata": "Q5085831", "operator": "Charlotte Area Transit System", "public_transport": "platform", "shelter": "no"}}, {"type": "node", "id": 8544450238, "lat": 35.2154502, "lon": -80.8218249, "tags": {"bench": "no", "bus": "yes", "highway": "bus_stop", "name": "7th Street & Hawthorne Ln.", "network": "CATS", "network:wikidata": "Q5085831", "operator": "Charlotte Area Transit System", "public_transport": "platform", "shelter": "no"}}, {"type": "node", "id": 8544451449, "lat": 35.2043074, "lon": -80.8085355, "tags": {"bench": "no", "bin": "no", "bus": "yes", "highway": "bus_stop", "name": "Monroe Road & Montrose Street", "network": "CATS", "network:wikidata": "Q5085831", "operator": "Charlotte Area Transit System", "public_transport": "platform", "shelter": "no"}}, {"type": "node", "id": 8544451450, "lat": 35.2044636, "lon": -80.8084063, "tags": {"bench": "yes", "bin": "yes", "bus": "yes", "highway": "bus_stop", "name": "Monroe Road & Dunn Avenue", "public_transport": "platform", "shelter": "no"}}, {"type": "node", "id": 8544452455, "lat": 35.2102325, "lon": -80.8148879, "tags": {"bench": "no", "bin": "no", "bus": "yes", "highway": "bus_stop", "name": "7th Street & Laurel Avenue", "network": "CATS", "network:wikidata": "Q5085831", "operator": "Charlotte Area Transit System", "public_transport": "platform", "shelter": "no"}}, {"type": "node", "id": 8544454518, "lat": 35.2170409, "lon": -80.8239576, "tags": {"bench": "no", "bus": "yes", "highway": "bus_stop", "name": "7th Street & Armory Drive", "network": "CATS", "network:wikidata": "Q5085831", "operator": "Charlotte Area Transit System", "public_transport": "platform", "shelter": "no"}}, {"type": "node", "id": 8544460394, "lat": 35.206431, "lon": -80.8110901, "tags": {"bench": "no", "bin": "no", "bus": "yes", "highway": "bus_stop", "name": "7th Street & 5th Street", "network": "CATS", "network:wikidata": "Q5085831", "operator": "Charlotte Area Transit System", "public_transport": "platform", "shelter": "no"}}, {"type": "node", "id": 8544460395, "lat": 35.206268, "lon": -80.8106713, "tags": {"bench": "no", "bin": "no", "bus": "yes", "highway": "bus_stop", "name": "7th Street & Firefighter Place", "network": "CATS", "network:wikidata": "Q5085831", "operator": "Charlotte Area Transit System", "public_transport": "platform", "shelter": "no"}}, {"type": "node", "id": 8544465817, "lat": 35.2111935, "lon": -80.8165375, "tags": {"bench": "no", "bin": "yes", "bus": "yes", "highway": "bus_stop", "name": "7th Street & Clarice Avenue", "network": "CATS", "network:wikidata": "Q5085831", "operator": "Charlotte Area Transit System", "public_transport": "platform", "shelter": "no"}}, {"type": "node", "id": 8544465818, "lat": 35.2112533, "lon": -80.8163891, "tags": {"bench": "no", "bin": "yes", "bus": "yes", "highway": "bus_stop", "name": "7th Street & Clarice Avenue", "network": "CATS", "network:wikidata": "Q5085831", "operator": "Charlotte Area Transit System", "public_transport": "platform", "shelter": "no"}}, {"type": "node", "id": 8544472965, "lat": 35.2101657, "lon": -80.8150488, "tags": {"bench": "no", "bin": "no", "bus": "yes", "highway": "bus_stop", "name": "7th Street & Laurel Avenue", "network": "CATS", "network:wikidata": "Q5085831", "operator": "Charlotte Area Transit System", "public_transport": "platform", "shelter": "no"}}, {"type": "node", "id": 8544476648, "lat": 35.2090397, "lon": -80.8132442, "tags": {"bench": "no", "bin": "yes", "bus": "yes", "highway": "bus_stop", "name": "7th Street & Bascom Street", "network": "CATS", "network:wikidata": "Q5085831", "operator": "Charlotte Area Transit System", "public_transport": "platform", "shelter": "no"}}, {"type": "node", "id": 8544476649, "lat": 35.2089971, "lon": -80.8134552, "tags": {"bench": "no", "bin": "no", "bus": "yes", "highway": "bus_stop", "name": "7th Street & Cameron Avenue", "public_transport": "platform", "shelter": "no"}}, {"type": "node", "id": 8544480198, "lat": 35.2041967, "lon": -80.8050829, "tags": {"bench": "no", "bin": "yes", "bus": "yes", "highway": "bus_stop", "name": "Monroe Road & Puhlman Street", "public_transport": "platform", "shelter": "no"}}, {"type": "node", "id": 8544480199, "lat": 35.2043419, "lon": -80.8046484, "tags": {"bench": "no", "bin": "no", "bus": "yes", "highway": "bus_stop", "name": "Monroe Road & Colonnade Drive", "public_transport": "platform", "shelter": "no"}}, {"type": "node", "id": 8544492128, "lat": 35.2042323, "lon": -80.8024194, "tags": {"bench": "no", "bin": "yes", "bus": "yes", "highway": "bus_stop", "name": "Monroe Road & Briar Creek Road", "public_transport": "platform", "shelter": "no"}}, {"type": "node", "id": 8544492129, "lat": 35.2040633, "lon": -80.8024788, "tags": {"bench": "no", "bin": "yes", "bus": "yes", "highway": "bus_stop", "name": "Monroe Road & Alcott Street", "public_transport": "platform", "shelter": "no"}}, {"type": "node", "id": 8544616719, "lat": 35.1780134, "lon": -80.8005713, "tags": {"bench": "yes", "bin": "yes", "bus": "yes", "highway": "bus_stop", "name": "Randolph Road & Greenwich Road", "network": "CATS", "network:wikidata": "Q5085831", "operator": "Charlotte Area Transit System", "public_transport": "platform", "shelter": "yes"}}, {"type": "node", "id": 8557755364, "lat": 35.1935835, "lon": -80.7947801, "tags": {"bench": "no", "bin": "no", "bus": "yes", "highway": "bus_stop", "name": "Wendover Road & Latrobe Drive", "public_transport": "platform", "shelter": "no"}}, {"type": "node", "id": 8557755365, "lat": 35.193491, "lon": -80.7945466, "tags": {"bench": "no", "bin": "no", "bus": "yes", "highway": "bus_stop", "name": "Wendover Road & Latrobe Drive", "public_transport": "platform", "shelter": "no"}}, {"type": "node", "id": 8558622207, "lat": 35.1926993, "lon": -80.7801792, "tags": {"bench": "no", "bin": "no", "bus": "yes", "highway": "bus_stop", "name": "Monroe Road & Commodore Street", "network": "CATS", "network:wikidata": "Q5085831", "operator": "Charlotte Area Transit System", "public_transport": "platform", "shelter": "no"}}, {"type": "node", "id": 8558627656, "lat": 35.193631, "lon": -80.7818264, "tags": {"bench": "yes", "bin": "yes", "bus": "yes", "departures_board": "yes", "highway": "bus_stop", "name": "Monroe Road & Chippendale Road", "network": "CATS", "network:wikidata": "Q5085831", "operator": "Charlotte Area Transit System", "public_transport": "platform", "shelter": "yes"}}, {"type": "node", "id": 8625452422, "lat": 35.1774681, "lon": -80.7982799, "tags": {"bin": "no", "bus": "yes", "highway": "bus_stop", "name": "Colwick Road & Greenwich Road", "network": "CATS", "network:wikidata": "Q5085831", "operator": "Charlotte Area Transit System", "public_transport": "platform", "shelter": "no"}}, {"type": "node", "id": 8840209130, "lat": 35.2006553, "lon": -80.771661, "tags": {"bench": "no", "bin": "no", "bus": "yes", "departures_board": "timetable", "highway": "bus_stop", "name": "Bamboo Street & Wilshire Place", "network": "CATS", "network:wikidata": "Q5085831", "operator": "Charlotte Area Transit System", "public_transport": "platform", "shelter": "no"}}, {"type": "node", "id": 8859905503, "lat": 35.1341327, "lon": -80.7157118, "tags": {"bench": "yes", "bin": "yes", "bus": "yes", "departures_board": "yes", "highway": "bus_stop", "lit": "yes", "name": "Matthews Park & Ride", "network": "CATS", "network:wikidata": "Q5085831", "operator": "Charlotte Area Transit System", "public_transport": "platform", "shelter": "yes", "wheelchair": "yes"}}, {"type": "node", "id": 8862660264, "lat": 35.2040213, "lon": -80.7243134, "tags": {"bench": "yes", "bin": "yes", "bus": "yes", "departures_board": "yes", "highway": "bus_stop", "name": "Albemarle Road Park & Ride", "network": "CATS", "network:wikidata": "Q5085831", "operator": "Charlotte Area Transit System", "public_transport": "platform", "wheelchair": "yes"}}, {"type": "node", "id": 9215059834, "lat": 35.2267196, "lon": -80.8426369, "tags": {"bin": "yes", "bus": "yes", "highway": "bus_stop", "name": "East Trade St at College Street", "network": "CATS", "network:wikidata": "Q5085831", "operator": "Charlotte Area Transit System", "public_transport": "platform", "ref": "8430", "route_ref": "1;7;8;21;26;34", "shelter": "yes"}}, {"type": "node", "id": 9215059835, "lat": 35.2267602, "lon": -80.8445327, "tags": {"bin": "yes", "bus": "yes", "highway": "bus_stop", "name": "West 4th Street at South Tryon Street", "network": "CATS", "network:wikidata": "Q5085831", "operator": "Charlotte Area Transit System", "public_transport": "platform", "ref": "45749", "route_ref": "1;7;82x;85x"}}, {"type": "node", "id": 9215059836, "lat": 35.2282586, "lon": -80.8444322, "tags": {"bin": "no", "bus": "yes", "highway": "bus_stop", "name": "West Trade Street at Church Street", "network": "CATS", "network:wikidata": "Q5085831", "operator": "Charlotte Area Transit System", "public_transport": "platform", "ref": "44045", "route_ref": "1;7;8;22;26;34"}}, {"type": "node", "id": 9215059837, "lat": 35.227629, "lon": -80.845557, "tags": {"bin": "no", "bus": "yes", "highway": "bus_stop", "name": "West 4th Street at South Poplar Street", "public_transport": "platform", "ref": "38420", "route_ref": "1;7;8;22;26;34;74x;82x;85x"}}, {"type": "node", "id": 9215059838, "lat": 35.2302537, "lon": -80.846753, "tags": {"bin": "yes", "bus": "yes", "highway": "bus_stop", "name": "West Trade Street at Graham Street", "network": "CATS", "network:wikidata": "Q5085831", "operator": "Charlotte Area Transit System", "public_transport": "platform", "ref": "45720", "route_ref": "1;7;8;22;26;34"}}, {"type": "node", "id": 9215059839, "lat": 35.229382, "lon": -80.847612, "tags": {"bin": "no", "bus": "yes", "highway": "bus_stop", "name": "West 4th Street at South Graham Street", "network": "CATS", "network:wikidata": "Q5085831", "operator": "Charlotte Area Transit System", "public_transport": "platform", "ref": "59660", "route_ref": "1;7;8;22;26;34;74x"}}, {"type": "node", "id": 9215059840, "lat": 35.231465, "lon": -80.84606, "tags": {"bin": "no", "bus": "yes", "highway": "bus_stop", "name": "West 5th Street at North Graham Street", "network": "CATS", "network:wikidata": "Q5085831", "operator": "Charlotte Area Transit System", "public_transport": "platform", "ref": "17671", "route_ref": "1;7"}}, {"type": "node", "id": 9215059841, "lat": 35.2320201, "lon": -80.8448757, "tags": {"bin": "no", "bus": "yes", "highway": "bus_stop", "name": "North Graham Street at West 6th Street", "network": "CATS", "network:wikidata": "Q5085831", "operator": "Charlotte Area Transit System", "public_transport": "platform", "ref": "17672", "route_ref": "1;7;22;26"}}, {"type": "node", "id": 9215059842, "lat": 35.2312759, "lon": -80.8458346, "tags": {"bin": "no", "bus": "yes", "highway": "bus_stop", "name": "North Graham Street at West 5th Street", "network": "CATS", "network:wikidata": "Q5085831", "operator": "Charlotte Area Transit System", "public_transport": "platform", "ref": "17670", "route_ref": "1;7;22;26"}}, {"type": "node", "id": 9215059843, "lat": 35.235712, "lon": -80.851682, "tags": {"bench": "no", "bin": "no", "bus": "yes", "highway": "bus_stop", "lit": "yes", "name": "West 5th Street at North Irwin Avenue", "network": "CATS", "network:wikidata": "Q5085831", "operator": "Charlotte Area Transit System", "public_transport": "platform", "ref": "33150", "route_ref": "1;7", "shelter": "no", "tactile_paving": "no"}}, {"type": "node", "id": 9215059844, "lat": 35.23582, "lon": -80.851622, "tags": {"bench": "no", "bin": "no", "bus": "yes", "highway": "bus_stop", "lit": "yes", "name": "West 5th Street at North Irwin Avenue", "network": "CATS", "network:wikidata": "Q5085831", "operator": "Charlotte Area Transit System", "public_transport": "platform", "ref": "33151", "route_ref": "1;7", "shelter": "no", "tactile_paving": "yes"}}, {"type": "node", "id": 9215059845, "lat": 35.234337, "lon": -80.849592, "tags": {"bench": "no", "bin": "no", "bus": "yes", "highway": "bus_stop", "lit": "yes", "name": "West 5th Street at North Cedar Street", "network": "CATS", "network:wikidata": "Q5085831", "operator": "Charlotte Area Transit System", "public_transport": "platform", "ref": "21511", "route_ref": "1;7", "shelter": "no", "tactile_paving": "no"}}, {"type": "node", "id": 9215059846, "lat": 35.2393111, "lon": -80.8562191, "tags": {"bin": "yes", "bus": "yes", "highway": "bus_stop", "name": "West 5th Street at Frazier Avenue", "public_transport": "platform", "ref": "33210", "route_ref": "1;7"}}, {"type": "node", "id": 9215059847, "lat": 35.2393376, "lon": -80.856567, "tags": {"bin": "yes", "bus": "yes", "highway": "bus_stop", "name": "West 5th Street at Frazier Avenue", "public_transport": "platform", "ref": "33200", "route_ref": "1;7"}}, {"type": "node", "id": 9215059848, "lat": 35.2413182, "lon": -80.8581612, "tags": {"bin": "no", "bus": "yes", "highway": "bus_stop", "name": "West 5th Street at West Trade Street", "network": "CATS", "network:wikidata": "Q5085831", "operator": "Charlotte Area Transit System", "public_transport": "platform", "ref": "33240", "route_ref": "1;7"}}, {"type": "node", "id": 9215059849, "lat": 35.3235328, "lon": -80.948289, "tags": {"bin": "no", "bus": "yes", "highway": "bus_stop", "name": "Mount Holly-Huntersville Road at Couloak Drive", "network": "CATS", "public_transport": "platform", "ref": "46506", "route_ref": "1;18"}}, {"type": "node", "id": 9215059850, "lat": 35.3218614, "lon": -80.9514985, "tags": {"bin": "no", "bus": "yes", "highway": "bus_stop", "name": "Mount Holly-Huntersville Road at Rozzelles Ferry Road", "network": "CATS", "public_transport": "platform", "ref": "46604", "route_ref": "1;18"}}, {"type": "node", "id": 9215059851, "lat": 35.3240687, "lon": -80.9475983, "tags": {"bin": "yes", "bus": "yes", "highway": "bus_stop", "name": "Mount Holly-Huntersville Road & Couloak Drive", "network": "CATS", "public_transport": "platform", "ref": "46505", "route_ref": "1;18"}}, {"type": "node", "id": 9215059852, "lat": 35.3277608, "lon": -80.9451183, "tags": {"bin": "yes", "bus": "yes", "highway": "bus_stop", "name": "Callabridge Court at Walmart", "network": "CATS", "public_transport": "platform", "ref": "46507", "route_ref": "1;18"}}, {"type": "node", "id": 9215059853, "lat": 35.3276006, "lon": -80.9450837, "tags": {"bin": "yes", "bus": "yes", "highway": "bus_stop", "name": "Callabridge Court at Walmart", "network": "CATS", "public_transport": "platform", "ref": "46518", "route_ref": "1;18"}}, {"type": "node", "id": 9215059854, "lat": 35.32954, "lon": -80.947581, "tags": {"bin": "yes", "highway": "bus_stop", "name": "Callabridge Court at Walmart (back)", "ref": "46508", "route_ref": "1;18"}}, {"type": "node", "id": 9215059855, "lat": 35.28052, "lon": -80.904172, "tags": {"bin": "no", "bus": "yes", "highway": "bus_stop", "name": "Old Mount Holly Road at Todd Lane", "network": "CATS", "network:wikidata": "Q5085831", "operator": "Charlotte Area Transit System", "public_transport": "platform", "ref": "46484", "route_ref": "1"}}, {"type": "node", "id": 9215059856, "lat": 35.25034, "lon": -80.870301, "tags": {"bin": "yes", "bus": "yes", "highway": "bus_stop", "name": "Rozzelles Ferry Road at Judson Avenue", "network": "CATS", "network:wikidata": "Q5085831", "operator": "Charlotte Area Transit System", "public_transport": "platform", "ref": "24890", "route_ref": "1"}}, {"type": "node", "id": 9215059857, "lat": 35.2576068, "lon": -80.8767571, "tags": {"bin": "no", "bus": "yes", "highway": "bus_stop", "name": "Rozzelles Ferry Road at Oregon Street", "network": "CATS", "network:wikidata": "Q5085831", "operator": "Charlotte Area Transit System", "public_transport": "platform", "ref": "24970", "route_ref": "1"}}, {"type": "node", "id": 9215059858, "lat": 35.2448276, "lon": -80.8650117, "tags": {"bin": "no", "bus": "yes", "highway": "bus_stop", "name": "Rozzelles Ferry Road at Turner Avenue", "network": "CATS", "network:wikidata": "Q5085831", "operator": "Charlotte Area Transit System", "public_transport": "platform", "ref": "24810", "route_ref": "1"}}, {"type": "node", "id": 9215059859, "lat": 35.245545, "lon": -80.866184, "tags": {"bin": "no", "bus": "yes", "highway": "bus_stop", "name": "Rozzelles Ferry Road at Gardener Avenue", "network": "CATS", "network:wikidata": "Q5085831", "operator": "Charlotte Area Transit System", "public_transport": "platform", "ref": "24820", "route_ref": "1"}}, {"type": "node", "id": 9215059860, "lat": 35.224229, "lon": -80.841325, "tags": {"bin": "no", "bus": "yes", "highway": "bus_stop", "name": "Transit Center- Bay P", "network": "CATS", "network:wikidata": "Q5085831", "operator": "Charlotte Area Transit System", "public_transport": "platform", "ref": "45037", "route_ref": "1"}}, {"type": "node", "id": 9215059861, "lat": 35.2563851, "lon": -80.8754079, "tags": {"bench": "yes", "bin": "yes", "bus": "yes", "highway": "bus_stop", "name": "Rozzelles Ferry Road at 3245", "network": "CATS", "network:wikidata": "Q5085831", "operator": "Charlotte Area Transit System", "public_transport": "platform", "ref": "24955", "route_ref": "1"}}, {"type": "node", "id": 9215059862, "lat": 35.2581972, "lon": -80.8777159, "tags": {"bench": "yes", "bin": "yes", "bus": "yes", "highway": "bus_stop", "name": "Rozzelles Ferry Road at Lander Street", "network": "CATS", "network:wikidata": "Q5085831", "operator": "Charlotte Area Transit System", "public_transport": "platform", "ref": "25010", "route_ref": "1"}}, {"type": "node", "id": 9215059863, "lat": 35.3198207, "lon": -80.9516946, "tags": {"bin": "yes", "bus": "yes", "highway": "bus_stop", "name": "Bellhaven Boulevard at Bellhaven Circle", "network": "CATS", "operator": "Charlotte Area Transit System", "public_transport": "platform", "ref": "45602", "route_ref": "1", "shelter": "no"}}, {"type": "node", "id": 9215059864, "lat": 35.25988, "lon": -80.879249, "tags": {"bin": "no", "bus": "yes", "highway": "bus_stop", "name": "Rozzelles Ferry Road at Dupree Street", "network": "CATS", "network:wikidata": "Q5085831", "operator": "Charlotte Area Transit System", "public_transport": "platform", "ref": "25030", "route_ref": "1"}}, {"type": "node", "id": 9215059865, "lat": 35.289988, "lon": -80.926926, "tags": {"bin": "no", "bus": "yes", "highway": "bus_stop", "name": "Valleydale Road at Morningside Road", "network": "CATS", "network:wikidata": "Q5085831", "operator": "Charlotte Area Transit System", "public_transport": "platform", "ref": "60396", "route_ref": "1"}}, {"type": "node", "id": 9215059866, "lat": 35.278183, "lon": -80.898438, "tags": {"bin": "no", "bus": "yes", "highway": "bus_stop", "name": "Rozzelles Ferry Road at Hough Street", "network": "CATS", "network:wikidata": "Q5085831", "operator": "Charlotte Area Transit System", "public_transport": "platform", "ref": "39800", "route_ref": "1"}}, {"type": "node", "id": 9215059867, "lat": 35.268919, "lon": -80.886839, "tags": {"bin": "no", "bus": "yes", "highway": "bus_stop", "name": "Rozzelles Ferry Road at Manley Street", "network": "CATS", "network:wikidata": "Q5085831", "operator": "Charlotte Area Transit System", "public_transport": "platform", "ref": "25120", "route_ref": "1"}}, {"type": "node", "id": 9215059868, "lat": 35.273818, "lon": -80.891319, "tags": {"bin": "no", "bus": "yes", "highway": "bus_stop", "name": "Rozzelles Ferry Road at Salem Church Road", "network": "CATS", "network:wikidata": "Q5085831", "operator": "Charlotte Area Transit System", "public_transport": "platform", "ref": "25190", "route_ref": "1"}}, {"type": "node", "id": 9215059869, "lat": 35.273277, "lon": -80.89074, "tags": {"bin": "no", "bus": "yes", "highway": "bus_stop", "name": "Rozzelles Ferry Road at 4909", "network": "CATS", "network:wikidata": "Q5085831", "operator": "Charlotte Area Transit System", "public_transport": "platform", "ref": "25180", "route_ref": "1"}}, {"type": "node", "id": 9215059870, "lat": 35.304654, "lon": -80.9376476, "tags": {"bin": "no", "bus": "yes", "highway": "bus_stop", "name": "Bellhaven Boulevard at Rozwood Drive", "network": "CATS", "operator": "Charlotte Area Transit System", "ref": "45080", "route_ref": "1"}}, {"type": "node", "id": 9215059871, "lat": 35.293125, "lon": -80.930508, "tags": {"bin": "yes", "bus": "yes", "highway": "bus_stop", "name": "Valleydale Road at Jordans Pond Lane", "network": "CATS", "network:wikidata": "Q5085831", "operator": "Charlotte Area Transit System", "public_transport": "platform", "ref": "45611", "route_ref": "1"}}, {"type": "node", "id": 9215059872, "lat": 35.25646, "lon": -80.875286, "tags": {"bin": "no", "bus": "yes", "highway": "bus_stop", "name": "Rozzelles Ferry Road at Lakewood Avenue", "network": "CATS", "network:wikidata": "Q5085831", "operator": "Charlotte Area Transit System", "public_transport": "platform", "ref": "24960", "route_ref": "1"}}, {"type": "node", "id": 9215059873, "lat": 35.2435647, "lon": -80.8625054, "tags": {"bin": "no", "bus": "yes", "highway": "bus_stop", "name": "Rozzelles Ferry Road at Lima Avenue", "network": "CATS", "network:wikidata": "Q5085831", "operator": "Charlotte Area Transit System", "public_transport": "platform", "ref": "24770", "route_ref": "1"}}, {"type": "node", "id": 9215059874, "lat": 35.270754, "lon": -80.888446, "tags": {"bin": "no", "bus": "yes", "highway": "bus_stop", "name": "Rozzelles Ferry Road at Lawton Road", "network": "CATS", "network:wikidata": "Q5085831", "operator": "Charlotte Area Transit System", "public_transport": "platform", "ref": "25150", "route_ref": "1"}}, {"type": "node", "id": 9215059875, "lat": 35.25046, "lon": -80.870176, "tags": {"bin": "yes", "bus": "yes", "highway": "bus_stop", "name": "Rozzelles Ferry Road at Judson Avenue", "network": "CATS", "network:wikidata": "Q5085831", "operator": "Charlotte Area Transit System", "public_transport": "platform", "ref": "24880", "route_ref": "1"}}, {"type": "node", "id": 9215059876, "lat": 35.272566, "lon": -80.889969, "tags": {"bin": "no", "bus": "yes", "highway": "bus_stop", "name": "Rozzelles Ferry Rd @ 4810", "network": "CATS", "network:wikidata": "Q5085831", "operator": "Charlotte Area Transit System", "public_transport": "platform", "ref": "25170", "route_ref": "1"}}, {"type": "node", "id": 9215059877, "lat": 35.2815554, "lon": -80.9093177, "tags": {"bin": "no", "bus": "yes", "highway": "bus_stop", "name": "Old Mount Holly Road at Melynda Road", "network": "CATS", "network:wikidata": "Q5085831", "operator": "Charlotte Area Transit System", "public_transport": "platform", "ref": "45829", "route_ref": "1"}}, {"type": "node", "id": 9215059878, "lat": 35.2422211, "lon": -80.8598248, "tags": {"bin": "yes", "bus": "yes", "highway": "bus_stop", "name": "Rozzelles Ferry Road at Trade Street", "network": "CATS", "network:wikidata": "Q5085831", "operator": "Charlotte Area Transit System", "public_transport": "platform", "ref": "24730", "route_ref": "1"}}, {"type": "node", "id": 9215059879, "lat": 35.2814442, "lon": -80.909296, "tags": {"bin": "no", "bus": "yes", "highway": "bus_stop", "name": "Old Mount Holly Road at Melynda Road", "network": "CATS", "network:wikidata": "Q5085831", "operator": "Charlotte Area Transit System", "public_transport": "platform", "ref": "45836", "route_ref": "1"}}, {"type": "node", "id": 9215059880, "lat": 35.28642, "lon": -80.923096, "tags": {"bin": "no", "bus": "yes", "highway": "bus_stop", "name": "Valleydale Road at Homestead Glen", "network": "CATS", "network:wikidata": "Q5085831", "operator": "Charlotte Area Transit System", "public_transport": "platform", "ref": "60391", "route_ref": "1"}}, {"type": "node", "id": 9215059881, "lat": 35.2421149, "lon": -80.8593432, "tags": {"bin": "yes", "bus": "yes", "highway": "bus_stop", "name": "West 5th Street at Martin Street", "network": "CATS", "network:wikidata": "Q5085831", "operator": "Charlotte Area Transit System", "public_transport": "platform", "ref": "24720", "route_ref": "1"}}, {"type": "node", "id": 9215059882, "lat": 35.278168, "lon": -80.898505, "tags": {"bin": "no", "bus": "yes", "highway": "bus_stop", "name": "Rozzelles Ferry Road at Hough Street", "network": "CATS", "network:wikidata": "Q5085831", "operator": "Charlotte Area Transit System", "public_transport": "platform", "ref": "39870", "route_ref": "1"}}, {"type": "node", "id": 9215059883, "lat": 35.245472, "lon": -80.866239, "tags": {"bin": "yes", "bus": "yes", "highway": "bus_stop", "name": "Rozzelles Ferry Road at Gardener Avenue", "network": "CATS", "network:wikidata": "Q5085831", "operator": "Charlotte Area Transit System", "public_transport": "platform", "ref": "24830", "route_ref": "1"}}, {"type": "node", "id": 9215059884, "lat": 35.234132, "lon": -80.8496277, "tags": {"bench": "no", "bin": "no", "bus": "yes", "highway": "bus_stop", "lit": "yes", "name": "West 5th Street at North Cedar Street", "network": "CATS", "network:wikidata": "Q5085831", "operator": "Charlotte Area Transit System", "public_transport": "platform", "ref": "21512", "route_ref": "1", "shelter": "no", "tactile_paving": "no"}}, {"type": "node", "id": 9215059885, "lat": 35.266084, "lon": -80.884481, "tags": {"bench": "yes", "bin": "yes", "bus": "yes", "highway": "bus_stop", "name": "Rozzelles Ferry Road at Hoskins Road", "network": "CATS", "network:wikidata": "Q5085831", "operator": "Charlotte Area Transit System", "public_transport": "platform", "ref": "25090", "route_ref": "1"}}, {"type": "node", "id": 9215059886, "lat": 35.261755, "lon": -80.880732, "tags": {"bin": "no", "bus": "yes", "highway": "bus_stop", "name": "Rozzelles Ferry Road at Linwood Avenue", "network": "CATS", "network:wikidata": "Q5085831", "operator": "Charlotte Area Transit System", "public_transport": "platform", "ref": "25040", "route_ref": "1"}}, {"type": "node", "id": 9215059887, "lat": 35.268947, "lon": -80.88697, "tags": {"bin": "no", "bus": "yes", "highway": "bus_stop", "name": "Rozzelles Ferry Road at Manley Street", "network": "CATS", "network:wikidata": "Q5085831", "operator": "Charlotte Area Transit System", "public_transport": "platform", "ref": "25130", "route_ref": "1"}}, {"type": "node", "id": 9215059888, "lat": 35.281864, "lon": -80.911838, "tags": {"bin": "no", "bus": "yes", "highway": "bus_stop", "name": "Old Mount Holly Road at West Avenue", "network": "CATS", "network:wikidata": "Q5085831", "operator": "Charlotte Area Transit System", "public_transport": "platform", "ref": "46495", "route_ref": "1"}}, {"type": "node", "id": 9215059889, "lat": 35.262092, "lon": -80.881178, "tags": {"bin": "no", "bus": "yes", "highway": "bus_stop", "name": "Rozzelles Ferry Road at Linwood Avenue", "network": "CATS", "network:wikidata": "Q5085831", "operator": "Charlotte Area Transit System", "public_transport": "platform", "ref": "25050", "route_ref": "1"}}, {"type": "node", "id": 9215059890, "lat": 35.253412, "lon": -80.871708, "tags": {"bench": "yes", "bin": "no", "bus": "yes", "highway": "bus_stop", "name": "Rozzelles Ferry Road @ 3020", "network": "CATS", "network:wikidata": "Q5085831", "operator": "Charlotte Area Transit System", "public_transport": "platform", "ref": "24905", "route_ref": "1"}}, {"type": "node", "id": 9215059891, "lat": 35.265652, "lon": -80.884251, "tags": {"bench": "yes", "bin": "yes", "bus": "yes", "highway": "bus_stop", "name": "Rozzelles Ferry Road at Hoskins Road", "network": "CATS", "network:wikidata": "Q5085831", "operator": "Charlotte Area Transit System", "public_transport": "platform", "ref": "25080", "route_ref": "1"}}, {"type": "node", "id": 9215059892, "lat": 35.271225, "lon": -80.889037, "tags": {"bin": "no", "bus": "yes", "highway": "bus_stop", "name": "Rozzelles Ferry Road at Lawton Road", "network": "CATS", "network:wikidata": "Q5085831", "operator": "Charlotte Area Transit System", "public_transport": "platform", "ref": "25140", "route_ref": "1"}}, {"type": "node", "id": 9215059893, "lat": 35.246125, "lon": -80.86737, "tags": {"bin": "no", "bus": "yes", "highway": "bus_stop", "name": "Rozzelles Ferry Road at Smallwood Place", "network": "CATS", "network:wikidata": "Q5085831", "operator": "Charlotte Area Transit System", "public_transport": "platform", "ref": "24840", "route_ref": "1"}}, {"type": "node", "id": 9215059894, "lat": 35.2435074, "lon": -80.8620839, "tags": {"bin": "yes", "bus": "yes", "highway": "bus_stop", "name": "Rozzelles Ferry Road at Lima Avenue", "network": "CATS", "network:wikidata": "Q5085831", "operator": "Charlotte Area Transit System", "public_transport": "platform", "ref": "24760", "route_ref": "1"}}, {"type": "node", "id": 9215059895, "lat": 35.2749758, "lon": -80.8935012, "tags": {"bin": "no", "bus": "yes", "highway": "bus_stop", "name": "Rozzelles Ferry Road at Salem Church Road", "network": "CATS", "network:wikidata": "Q5085831", "operator": "Charlotte Area Transit System", "public_transport": "platform", "ref": "25200", "route_ref": "1"}}, {"type": "node", "id": 9215059896, "lat": 35.293152, "lon": -80.930328, "tags": {"bin": "yes", "bus": "yes", "highway": "bus_stop", "name": "Valleydale Road at Jordans Pond Lane", "network": "CATS", "network:wikidata": "Q5085831", "operator": "Charlotte Area Transit System", "public_transport": "platform", "ref": "45613", "route_ref": "1"}}, {"type": "node", "id": 9215059897, "lat": 35.247859, "lon": -80.869011, "tags": {"bin": "no", "bus": "yes", "highway": "bus_stop", "name": "Rozzelles Ferry Road at Zebulon Avenue", "network": "CATS", "network:wikidata": "Q5085831", "operator": "Charlotte Area Transit System", "public_transport": "platform", "ref": "24870", "route_ref": "1"}}, {"type": "node", "id": 9215059898, "lat": 35.255444, "lon": -80.874, "tags": {"bin": "no", "bus": "yes", "highway": "bus_stop", "name": "Rozzelles Ferry Road at Norwood Drive", "network": "CATS", "network:wikidata": "Q5085831", "operator": "Charlotte Area Transit System", "public_transport": "platform", "ref": "24940", "route_ref": "1"}}, {"type": "node", "id": 9215059899, "lat": 35.275709, "lon": -80.895471, "tags": {"bin": "no", "bus": "yes", "highway": "bus_stop", "name": "Rozzelles Ferry Road at Hovis Road", "network": "CATS", "network:wikidata": "Q5085831", "operator": "Charlotte Area Transit System", "public_transport": "platform", "ref": "25210", "route_ref": "1"}}, {"type": "node", "id": 9215059900, "lat": 35.320689, "lon": -80.952303, "tags": {"bin": "no", "bus": "yes", "highway": "bus_stop", "name": "Bellhaven Boulevard at Mount Holly-Huntersville Road", "network": "CATS", "operator": "Charlotte Area Transit System", "public_transport": "platform", "ref": "45603", "route_ref": "1"}}, {"type": "node", "id": 9215059901, "lat": 35.276316, "lon": -80.893927, "tags": {"bin": "yes", "bus": "yes", "highway": "bus_stop", "name": "Salem Church Road at Rozzelles Ferry Road", "network": "CATS", "network:wikidata": "Q5085831", "operator": "Charlotte Area Transit System", "public_transport": "platform", "ref": "21513", "route_ref": "1"}}, {"type": "node", "id": 9215059902, "lat": 35.263482, "lon": -80.882343, "tags": {"bin": "yes", "bus": "yes", "highway": "bus_stop", "name": "Rozzelles Ferry Road at Crigler Street", "network": "CATS", "network:wikidata": "Q5085831", "operator": "Charlotte Area Transit System", "public_transport": "platform", "ref": "25070", "route_ref": "1"}}, {"type": "node", "id": 9215059903, "lat": 35.255379, "lon": -80.874109, "tags": {"bin": "no", "bus": "yes", "highway": "bus_stop", "name": "Rozzelles Ferry Road at Norwood Drive", "network": "CATS", "network:wikidata": "Q5085831", "operator": "Charlotte Area Transit System", "public_transport": "platform", "ref": "24950", "route_ref": "1"}}, {"type": "node", "id": 9215059904, "lat": 35.280292, "lon": -80.903182, "tags": {"bench": "yes", "bin": "yes", "bus": "yes", "highway": "bus_stop", "name": "Old Mount Holly Road at East Todd Lane", "network": "CATS", "network:wikidata": "Q5085831", "operator": "Charlotte Area Transit System", "public_transport": "platform", "ref": "52512", "route_ref": "1"}}, {"type": "node", "id": 9215059905, "lat": 35.280379, "lon": -80.902951, "tags": {"bench": "yes", "bin": "no", "bus": "yes", "highway": "bus_stop", "name": "Old Mount Holly Road at East Todd Lane", "network": "CATS", "network:wikidata": "Q5085831", "operator": "Charlotte Area Transit System", "public_transport": "platform", "ref": "52513", "route_ref": "1"}}, {"type": "node", "id": 9215059906, "lat": 35.281796, "lon": -80.91404, "tags": {"bin": "no", "bus": "yes", "highway": "bus_stop", "name": "Old Mount Holly Road at Toddville Road", "network": "CATS", "network:wikidata": "Q5085831", "operator": "Charlotte Area Transit System", "public_transport": "platform", "ref": "46494", "route_ref": "1"}}, {"type": "node", "id": 9215059907, "lat": 35.277281, "lon": -80.895336, "tags": {"bin": "yes", "bus": "yes", "highway": "bus_stop", "name": "Hovis Road at Salem Church Road", "network": "CATS", "network:wikidata": "Q5085831", "operator": "Charlotte Area Transit System", "public_transport": "platform", "ref": "12360", "route_ref": "1"}}, {"type": "node", "id": 9215059908, "lat": 35.248063, "lon": -80.868962, "tags": {"bin": "no", "bus": "yes", "highway": "bus_stop", "name": "Rozzelles Ferry Road at Zebulon Avenue", "network": "CATS", "network:wikidata": "Q5085831", "operator": "Charlotte Area Transit System", "public_transport": "platform", "ref": "24860", "route_ref": "1"}}, {"type": "node", "id": 9215059909, "lat": 35.253893, "lon": -80.872262, "tags": {"bin": "no", "bus": "yes", "highway": "bus_stop", "name": "Rozzelles Ferry Road at Coronet Way", "network": "CATS", "network:wikidata": "Q5085831", "operator": "Charlotte Area Transit System", "public_transport": "platform", "ref": "24920", "route_ref": "1"}}, {"type": "node", "id": 9215059910, "lat": 35.280174, "lon": -80.901795, "tags": {"bench": "yes", "bin": "yes", "bus": "yes", "highway": "bus_stop", "name": "Old Mount Holly Road at East Todd Lane", "network": "CATS", "network:wikidata": "Q5085831", "operator": "Charlotte Area Transit System", "public_transport": "platform", "ref": "45827", "route_ref": "1"}},