{"version": 0.6, "generator": "Overpass API 0.7.62.8 e802775f", "osm3s": {"timestamp_osm_base": "2026-01-12T21:50:29Z", "copyright": "The data included in this document is from www.openstreetmap.org. The data is made available under ODbL."}, "elements": [{"type": "node", "id": 357767025, "lat": 36.4589654, "lon": -77.6540095, "tags": {"amenity": "school", "ele": "47", "gnis:feature_id": "980071", "name": "Akers School"}}, {"type": "node", "id": 357770334, "lat": 36.4415397, "lon": -77.6585905, "tags": {"amenity": "school", "ele": "44", "gnis:feature_id": "982992", "name": "Chaloner School"}}, {"type": "node", "id": 357771429, "lat": 36.4448721, "lon": -77.7452593, "tags": {"addr:city": "Roanoke Rapids", "addr:housenumber": "4391", "addr:postcode": "27870", "addr:state": "NC", "addr:street": "US-158", "amenity": "school", "ele": "79", "gnis:feature_id": "983981", "name": "William R. Davie Middle School", "phone": "+12525190300"}}, {"type": "node", "id": 357771894, "lat": 36.2392526, "lon": -77.8496703}, {"type": "node", "id": 357772406, "lat": 36.4429276, "lon": -77.7583152, "tags": {"amenity": "school", "ele": "94", "gnis:feature_id": "984872", "name": "Everetts School"}}, {"type": "node", "id": 357773436, "lat": 36.5353443, "lon": -77.7914618, "tags": {"addr:city": "Gaston", "addr:housenumber": "564", "addr:postcode": "27832", "addr:state": "NC", "addr:street": "NC-46", "amenity": "school", "ele": "102", "gnis:feature_id": "985603", "name": "Lake Gaston Community Center", "phone": "+12525355092"}}, {"type": "node", "id": 357774232, "lat": 36.4651519, "lon": -77.520532, "tags": {"amenity": "school", "ele": "44", "gnis:feature_id": "986255", "name": "Gumberry School"}}, {"type": "node", "id": 357774277, "lat": 36.3982067, "lon": -77.6710897, "tags": {"amenity": "school", "ele": "48", "gnis:feature_id": "986305", "name": "Halifax Academy"}}, {"type": "node", "id": 357774576, "lat": 36.462995, "lon": -77.6634798, "tags": {"addr:city": "Roanoke Rapids", "addr:housenumber": "731", "addr:street": "Cedar Street", "amenity": "school", "ele": "55", "gnis:feature_id": "986571", "name": "Hearn School", "website": "https://www.rrgsd.org/o/clara-hearne-pre-k"}}, {"type": "node", "id": 357778081, "lat": 36.4415379, "lon": -77.8938757, "tags": {"amenity": "school", "ele": "107", "gnis:feature_id": "989659", "name": "Mciver School"}}, {"type": "node", "id": 357780679, "lat": 36.3876501, "lon": -77.7897038, "tags": {"addr:city": "Littleton", "addr:housenumber": "8492", "addr:postcode": "28750", "addr:state": "NC", "addr:street": "NC-48", "amenity": "school", "ele": "87", "gnis:feature_id": "991308", "name": "Northwest High School", "phone": "+12525864125"}}, {"type": "node", "id": 357782352, "lat": 36.2643182, "lon": -77.7430319, "tags": {"amenity": "school", "ele": "53", "gnis:feature_id": "992434", "name": "Pittman School"}}, {"type": "node", "id": 357786716, "lat": 36.5051501, "lon": -77.6660922, "tags": {"amenity": "school", "ele": "57", "gnis:feature_id": "995383", "name": "Squire School"}}, {"type": "node", "id": 357787532, "lat": 36.2479326, "lon": -77.4910837, "tags": {"amenity": "school", "ele": "21", "gnis:feature_id": "996106", "name": "Tillery Chapel School"}}, {"type": "node", "id": 357788803, "lat": 36.412096, "lon": -77.6116443, "tags": {"amenity": "school", "ele": "36", "gnis:feature_id": "996945", "name": "Weldon High School"}}, {"type": "node", "id": 357799185, "lat": 36.2084878, "lon": -77.541362, "tags": {"amenity": "school", "ele": "36", "gnis:feature_id": "1006637", "name": "Southeast High School"}}, {"type": "node", "id": 357799192, "lat": 36.4208724, "lon": -77.6003726, "tags": {"amenity": "school", "ele": "24", "gnis:feature_id": "1006642", "name": "Weldon Elementary School"}}, {"type": "node", "id": 357799305, "lat": 36.4979282, "lon": -77.6460915, "tags": {"amenity": "school", "ele": "46", "gnis:feature_id": "1006741", "name": "Gaston Junior High School"}}, {"type": "node", "id": 357799306, "lat": 36.4504294, "lon": -77.5655329, "tags": {"amenity": "school", "ele": "40", "gnis:feature_id": "1006742", "name": "Garysburg Elementary School"}}, {"type": "node", "id": 357810490, "lat": 36.4714598, "lon": -77.657974, "tags": {"amenity": "school", "ele": "40", "gnis:feature_id": "1024838", "name": "W T Medlin Elementary School"}}, {"type": "node", "id": 1033100743, "lat": 36.4516675, "lon": -77.6451493}, {"type": "node", "id": 1033100744, "lat": 36.4496459, "lon": -77.6446268}, {"type": "node", "id": 1033100758, "lat": 36.4535489, "lon": -77.6421318}, {"type": "node", "id": 1033100759, "lat": 36.4526515, "lon": -77.6412842}, {"type": "node", "id": 1033100761, "lat": 36.4523063, "lon": -77.6410804}, {"type": "node", "id": 1033100762, "lat": 36.4519783, "lon": -77.6409624}, {"type": "node", "id": 5586223368, "lat": 36.2523506, "lon": -77.9809052, "tags": {"amenity": "school", "name": "Haliwa-Saponi Tribal School"}}, {"type": "node", "id": 5586568242, "lat": 36.2575881, "lon": -77.9424059, "tags": {"amenity": "school", "name": "Hollister Elementary School"}}, {"type": "node", "id": 5640300904, "lat": 36.3638229, "lon": -77.8082594, "tags": {"addr:city": "Littleton", "addr:housenumber": "10536", "addr:postcode": "27850", "addr:state": "NC", "addr:street": "NC-48", "amenity": "school", "name": "Aurelian Springs Elementary School", "phone": "+12525864944"}}, {"type": "node", "id": 8378905016, "lat": 36.3677089, "lon": -77.6828705}, {"type": "node", "id": 8378905017, "lat": 36.3664777, "lon": -77.6827431}, {"type": "node", "id": 8378905018, "lat": 36.3661642, "lon": -77.6828847}, {"type": "node", "id": 8378905019, "lat": 36.3658507, "lon": -77.6819928}, {"type": "node", "id": 8378905020, "lat": 36.367555, "lon": -77.6793384}, {"type": "node", "id": 8378905021, "lat": 36.3687234, "lon": -77.6812425}, {"type": "node", "id": 8378905022, "lat": 36.3685296, "lon": -77.6824742}, {"type": "node", "id": 8445724791, "lat": 36.3311605, "lon": -77.5870254}, {"type": "node", "id": 8445724792, "lat": 36.3318226, "lon": -77.5879494}, {"type": "node", "id": 8445724793, "lat": 36.3328237, "lon": -77.5869431}, {"type": "node", "id": 8445724794, "lat": 36.3323142, "lon": -77.5861161}, {"type": "node", "id": 8445724795, "lat": 36.3320209, "lon": -77.5864051}, {"type": "node", "id": 8445724796, "lat": 36.3319517, "lon": -77.5863971}, {"type": "node", "id": 8445724797, "lat": 36.3317437, "lon": -77.586602}, {"type": "node", "id": 8445724798, "lat": 36.3316945, "lon": -77.586525}, {"type": "node", "id": 8558561626, "lat": 36.5045526, "lon": -77.6413951, "tags": {"amenity": "school", "name": "KIPP Pride High School", "operator": "KIPP", "operator:type": "charter"}}, {"type": "node", "id": 9932841451, "lat": 36.2392074, "lon": -77.8506647}, {"type": "node", "id": 9932841452, "lat": 36.2386285, "lon": -77.8516712}, {"type": "node", "id": 9932841453, "lat": 36.2376174, "lon": -77.8523974}, {"type": "node", "id": 9932841454, "lat": 36.2371097, "lon": -77.8524201}, {"type": "node", "id": 9932841455, "lat": 36.2371463, "lon": -77.8506962}, {"type": "node", "id": 9932841456, "lat": 36.2366614, "lon": -77.8506792}, {"type": "node", "id": 9932841457, "lat": 36.2366523, "lon": -77.8487966}, {"type": "node", "id": 10074991160, "lat": 36.4258042, "lon": -77.5974817, "tags": {"addr:city": "Weldon", "addr:housenumber": "379", "addr:postcode": "27890", "addr:state": "NC", "addr:street": "Washington Avenue", "amenity": "school", "name": "Kidz Academy"}}, {"type": "node", "id": 10914125891, "lat": 36.4499862, "lon": -77.6449606}, {"type": "node", "id": 10914125892, "lat": 36.450499, "lon": -77.6450618}, {"type": "node", "id": 10914125893, "lat": 36.4512692, "lon": -77.645794}, {"type": "way", "id": 89025479, "nodes": [1033100744, 10914125891, 10914125892, 10914125893, 1033100743, 1033100758, 1033100759, 1033100761, 1033100762, 1033100744], "tags": {"amenity": "school", "name": "W L Manning Elementary School"}}, {"type": "way", "id": 902045593, "nodes": [8378905016, 8378905017, 8378905018, 8378905019, 8378905020, 8378905021, 8378905022, 8378905016], "tags": {"amenity": "school"}}, {"type": "way", "id": 909617229, "nodes": [8445724791, 8445724792, 8445724793, 8445724794, 8445724795, 8445724796, 8445724797, 8445724798, 8445724791], "tags": {"amenity": "school", "ele": "31", "gnis:feature_id": "987497", "name": "Andrew Jackson Elementary School"}}, {"type": "way", "id": 1083911521, "nodes": [357771894, 9932841451, 9932841452, 9932841453, 9932841454, 9932841455, 9932841456, 9932841457, 357771894], "tags": {"amenity": "school", "ele": "75", "gnis:feature_id": "984561", "name": "Eastman School"}}]}